id,state,name,city,county,latitude,longitude,towered,longest_runway_ft,surface_category,use_category,contact_phone,info_url,type,sources,corroborated
00C,CO,ANIMAS AIR PARK,DURANGO,LA PLATA,37.20317833,-107.86919527,no,5010,paved,public,,https://www.airnav.com/airport/00C,airport,faa,no
00F,MT,BROADUS,BROADUS,POWDER RIVER,45.47047222,-105.45713888,no,4400,paved,public,,https://www.airnav.com/airport/00F,airport,faa,no
00M,MS,THIGPEN FLD,BAY SPRINGS,JASPER,31.95375,-89.23533333,no,3000,paved,public,,https://www.airnav.com/airport/00M,airport,faa,no
00N,NJ,BUCKS,BRIDGETON,CUMBERLAND,39.47373919,-75.18456752,no,2420,unpaved,public,,https://www.airnav.com/airport/00N,airport,faa,no
00R,TX,LIVINGSTON MUNI,LIVINGSTON,POLK,30.68586111,-95.01791666,no,3704,paved,public,,https://www.airnav.com/airport/00R,airport,faa,no
00S,OR,MC KENZIE BRIDGE STATE,MC KENZIE BRIDGE,LANE,44.18155555,-122.08555555,no,2600,unpaved,public,,https://www.airnav.com/airport/00S,airport,faa,no
00U,MT,BIG HORN COUNTY,HARDIN,BIG HORN,45.74438888,-107.66044444,no,4491,paved,public,,https://www.airnav.com/airport/00U,airport,faa,no
00W,WA,LOWER GRANITE STATE,COLFAX,WHITMAN,46.67275,-117.44166666,no,3400,unpaved,public,,https://www.airnav.com/airport/00W,airport,faa,no
01A,AK,PURKEYPILE,PURKEYPILE,KUSKOKWIM,62.94075555,-152.26960972,no,1176,unpaved,public,9074740788,https://www.airnav.com/airport/01A,airport,faa,no
01G,NY,PERRY-WARSAW,PERRY,WYOMING,42.74134861,-78.05214805,no,3429,paved,public,,https://www.airnav.com/airport/01G,airport,faa,no
01J,FL,HILLIARD AIRPARK,HILLIARD,NASSAU,30.68596666,-81.90634305,no,3600,unpaved,public,,https://www.airnav.com/airport/01J,airport,faa,no
01K,KS,CALDWELL MUNI,CALDWELL,SUMNER,37.03661111,-97.58555555,no,2460,unpaved,public,,https://www.airnav.com/airport/01K,airport,faa,no
01M,MS,TISHOMINGO COUNTY,BELMONT,TISHOMINGO,34.49179138,-88.2012025,no,4007,paved,public,,https://www.airnav.com/airport/01M,airport,faa,no
01U,NV,DUCKWATER,DUCKWATER,NYE,38.85325,-115.63466666,no,3400,unpaved,public,,https://www.airnav.com/airport/01U,airport,faa,no
02A,AL,CHILTON COUNTY,CLANTON,CHILTON,32.85048447,-86.61143247,no,4007,paved,public,,https://www.airnav.com/airport/02A,airport,faa,no
02C,WI,CAPITOL DRIVE,BROOKFIELD,WAUKESHA,43.08964136,-88.17944525,no,3387,unpaved,public,,https://www.airnav.com/airport/02C,airport,faa,no
02G,OH,COLUMBIANA COUNTY,EAST LIVERPOOL,COLUMBIANA,40.67330555,-80.64141666,no,3503,paved,public,,https://www.airnav.com/airport/02G,airport,faa,no
02T,MT,WISE RIVER,WISE RIVER,BEAVERHEAD,45.77002777,-112.98047222,no,4050,unpaved,public,,https://www.airnav.com/airport/02T,airport,faa,no
03B,MO,MANSFIELD MUNI,MANSFIELD,WRIGHT,37.12677777,-92.62161111,no,3000,paved,public,,https://www.airnav.com/airport/03B,airport,faa,no
03D,MO,MEMPHIS MEML,MEMPHIS,SCOTLAND,40.44725,-92.22694444,no,3300,paved,public,,https://www.airnav.com/airport/03D,airport,faa,no
03S,OR,SANDY RIVER,SANDY,CLACKAMAS,45.40161111,-122.22869444,no,2115,unpaved,public,,https://www.airnav.com/airport/03S,airport,faa,no
04A,AL,FRANK SIKES,LUVERNE,CRENSHAW,31.73638694,-86.26245463,no,4649,paved,public,,https://www.airnav.com/airport/04A,airport,faa,no
04G,OH,LANSDOWNE,YOUNGSTOWN,MAHONING,41.13047222,-80.61958333,no,3073,paved,public,,https://www.airnav.com/airport/04G,airport,faa,no
04M,MS,CALHOUN COUNTY,PITTSBORO,CALHOUN,33.93008333,-89.34327777,no,3200,paved,public,,https://www.airnav.com/airport/04M,airport,faa,no
04V,CO,SAGUACHE MUNI,SAGUACHE,SAGUACHE,38.09939444,-106.17432777,no,7957,unpaved,public,,https://www.airnav.com/airport/04V,airport,faa,no
04W,MN,FIELD OF DREAMS,HINCKLEY,PINE,46.02286811,-92.89517441,no,2751,paved,public,,https://www.airnav.com/airport/04W,airport,faa,no
04Y,MN,HAWLEY MUNI,HAWLEY,CLAY,46.88377777,-96.35061111,no,3398,paved,public,,https://www.airnav.com/airport/04Y,airport,faa,no
05C,IN,GRIFFITH-MERRILLVILLE,GRIFFITH,LAKE,41.519841,-87.39950797,no,4899,paved,public,,https://www.airnav.com/airport/05C,airport,faa,no
05D,ND,NEW TOWN MUNI,NEW TOWN,MOUNTRAIL,47.96812777,-102.47856138,no,3720,paved,public,,https://www.airnav.com/airport/05D,airport,faa,no
05K,AK,WILDER RUNWAY,PORT ALSWORTH,LAKE AND PENINSULA,60.19848083,-154.32304916,no,3849,unpaved,public,9072837211,https://www.airnav.com/airport/05K,airport,faa,no
05N,NC,SOUTH OAKS AERODROME,WINTERVILLE,PITT,35.48218472,-77.3557743,no,1850,unpaved,public,,https://www.airnav.com/airport/05N,airport,faa,no
05S,OR,VERNONIA MUNI,VERNONIA,COLUMBIA,45.85210625,-123.2428693,no,2940,unpaved,public,,https://www.airnav.com/airport/05S,airport,faa,no
05U,NV,EUREKA,EUREKA,EUREKA,39.60375,-116.00361111,no,7300,paved,public,,https://www.airnav.com/airport/05U,airport,faa,no
05V,CO,BLANCA,BLANCA,COSTILLA,37.41111916,-105.55168,no,6160,unpaved,public,,https://www.airnav.com/airport/05V,airport,faa,no
05Y,MN,HENNING MUNI,HENNING,OTTER TAIL,46.30398888,-95.44225833,no,3199,unpaved,public,,https://www.airnav.com/airport/05Y,airport,faa,no
06A,AL,MOTON FLD MUNI,TUSKEGEE,MACON,32.46047222,-85.68002777,no,5005,paved,public,,https://www.airnav.com/airport/06A,airport,faa,no
06C,IL,SCHAUMBURG RGNL,CHICAGO/SCHAUMBURG,DU PAGE,41.98934083,-88.10124277,no,3800,paved,public,,https://www.airnav.com/airport/06C,airport,faa,no
06D,ND,ROLLA MUNI/LEONARD KRECH FLD,ROLLA,ROLETTE,48.88441722,-99.62092666,no,4300,paved,public,,https://www.airnav.com/airport/06D,airport,faa,no
06M,MS,EUPORA,EUPORA,WEBSTER,33.53483333,-89.31311111,no,3000,paved,public,,https://www.airnav.com/airport/06M,airport,faa,no
06N,NY,RANDALL,MIDDLETOWN,ORANGE,41.43191194,-74.39156083,no,2810,paved,public,,https://www.airnav.com/airport/06N,airport,faa,no
06U,NV,JACKPOT/HAYDEN FLD,JACKPOT,ELKO,41.97583083,-114.65801555,no,6180,paved,public,,https://www.airnav.com/airport/06U,airport,faa,no
06Y,MN,HERMAN MUNI,HERMAN,GRANT,45.82996055,-96.16061444,no,2997,paved,public,,https://www.airnav.com/airport/06Y,airport,faa,no
07A,AL,FRANKLIN FLD,UNION SPRINGS,BULLOCK,32.1675925,-85.81119666,no,5002,paved,public,,https://www.airnav.com/airport/07A,airport,faa,no
07F,TX,GLADEWATER MUNI,GLADEWATER,GREGG,32.52883333,-94.97175,no,3299,paved,public,,https://www.airnav.com/airport/07F,airport,faa,no
07K,NE,CENTRAL CITY MUNI/LARRY REINEKE FLD,CENTRAL CITY,MERRICK,41.1115613,-98.05133561,no,3700,paved,public,,https://www.airnav.com/airport/07K,airport,faa,no
07N,PA,BERMUDIAN VALLEY AIRPARK,KRALLTOWN,YORK,40.01676166,-77.00386666,no,2200,unpaved,public,,https://www.airnav.com/airport/07N,airport,faa,no
07R,TX,BISHOP-WINDHAM,BISHOP,NUECES,27.61016666,-97.75252777,no,3200,paved,public,,https://www.airnav.com/airport/07R,airport,faa,no
07S,KS,BEAUMONT HOTEL,BEAUMONT,BUTLER,37.65930416,-96.52769166,no,2400,unpaved,public,,https://www.airnav.com/airport/07S,airport,faa,no
07V,CO,CUCHARA VALLEY AT LA VETA,LA VETA,HUERFANO,37.52382444,-105.00926861,no,5798,paved,public,,https://www.airnav.com/airport/07V,airport,faa,no
07Y,MN,HILL CITY/QUADNA MOUNTAIN,HILL CITY,AITKIN,46.955895,-93.59744288,no,2902,unpaved,public,,https://www.airnav.com/airport/07Y,airport,faa,no
08A,AL,WETUMPKA MUNI,WETUMPKA,ELMORE,32.52733333,-86.33102777,no,3013,paved,public,,https://www.airnav.com/airport/08A,airport,faa,no
08B,ME,MERRYMEETING FLD,BOWDOINHAM,SAGADAHOC,44,-69.88713888,no,1935,unpaved,public,,https://www.airnav.com/airport/08B,airport,faa,no
08C,MI,RIVERVIEW,JENISON,OTTAWA,42.93672263,-85.8057525,no,3920,paved,public,,https://www.airnav.com/airport/08C,airport,faa,no
08D,ND,STANLEY MUNI,STANLEY,MOUNTRAIL,48.30138638,-102.40806027,no,3900,paved,public,,https://www.airnav.com/airport/08D,airport,faa,no
08F,OK,CITY OF COALGATE,COALGATE,COAL,34.53175888,-96.23305388,no,2584,paved,public,,https://www.airnav.com/airport/08F,airport,faa,no
08K,NE,HARVARD STATE,HARVARD,CLAY,40.65133333,-98.07988888,no,3873,paved,public,,https://www.airnav.com/airport/08K,airport,faa,no
08M,MS,CARTHAGE-LEAKE COUNTY,CARTHAGE,LEAKE,32.76158333,-89.53038888,no,3000,paved,public,,https://www.airnav.com/airport/08M,airport,faa,no
08N,PA,KELLER BROTHERS,LEBANON,LEBANON,40.29155138,-76.32874722,no,2692,unpaved,public,,https://www.airnav.com/airport/08N,airport,faa,no
08R,RI,RICHMOND,WEST KINGSTON,WASHINGTON,41.4895,-71.62063888,no,2129,paved,public,,https://www.airnav.com/airport/08R,airport,faa,no
08U,NV,STEVENS-CROSBY,NORTH FORK,ELKO,41.51575122,-115.85992069,no,3600,unpaved,public,,https://www.airnav.com/airport/08U,airport,faa,no
09A,AL,BUTLER/CHOCTAW COUNTY,BUTLER,CHOCTAW,32.11930555,-88.12747222,no,4082,paved,public,,https://www.airnav.com/airport/09A,airport,faa,no
09J,GA,JEKYLL ISLAND,JEKYLL ISLAND,GLYNN,31.07447222,-81.42777777,no,3715,paved,public,,https://www.airnav.com/airport/09J,airport,faa,no
09K,NE,SARGENT MUNI,SARGENT,CUSTER,41.63491666,-99.34213888,no,3000,paved,public,,https://www.airnav.com/airport/09K,airport,faa,no
09M,MS,CHARLESTON MUNI,CHARLESTON,TALLAHATCHIE,33.99136111,-90.07855555,no,3000,paved,public,,https://www.airnav.com/airport/09M,airport,faa,no
09N,NY,AIRHAVEN,STAATSBURG,DUTCHESS,41.83263888,-73.87616666,no,1863,unpaved,public,,https://www.airnav.com/airport/09N,airport,faa,no
09R,TX,TYLER COUNTY,WOODVILLE,TYLER,30.77520055,-94.4585325,no,4000,paved,public,,https://www.airnav.com/airport/09R,airport,faa,no
09S,WA,SULLIVAN LAKE STATE,METALINE FALLS,PEND OREILLE,48.84089527,-117.28398583,no,1765,unpaved,public,,https://www.airnav.com/airport/09S,airport,faa,no
09T,TX,LAZY G BAR RANCH,DECATUR,WISE,33.28132069,-97.49669333,no,1600,unpaved,public,,https://www.airnav.com/airport/09T,airport,faa,no
0A3,TN,SMITHVILLE MUNI,SMITHVILLE,DE KALB,35.98544444,-85.80911111,no,4257,paved,public,,https://www.airnav.com/airport/0A3,airport,faa,no
0A4,TN,JOHNSON CITY,JOHNSON CITY,WASHINGTON,36.36371666,-82.30902611,no,3000,paved,public,,https://www.airnav.com/airport/0A4,airport,faa,no
0A7,NC,HENDERSONVILLE,HENDERSONVILLE,HENDERSON,35.30761666,-82.43317416,no,3075,paved,public,,https://www.airnav.com/airport/0A7,airport,faa,no
0A8,AL,BIBB COUNTY,CENTREVILLE,BIBB,32.93693888,-87.09054722,no,4206,paved,public,,https://www.airnav.com/airport/0A8,airport,faa,no
0A9,TN,WILLIAM B GREENE JR RGNL,ELIZABETHTON,CARTER,36.37155794,-82.17272433,no,5001,paved,public,,https://www.airnav.com/airport/0A9,airport,faa,no
0AK,AK,PILOT STATION,PILOT STATION,KUSILVAK,61.96147697,-162.94235461,no,4000,unpaved,public,9072837211,https://www.airnav.com/airport/0AK,airport,faa,no
0B1,ME,BETHEL RGNL,BETHEL,OXFORD,44.42516666,-70.80991666,no,3818,paved,public,,https://www.airnav.com/airport/0B1,airport,faa,no
0B2,ME,BREWER,BREWER,PENOBSCOT,44.76383333,-68.76786111,no,1730,unpaved,public,,https://www.airnav.com/airport/0B2,airport,faa,no
0B4,NE,HARTINGTON MUNI/BUD BECKER FLD,HARTINGTON,CEDAR,42.60308333,-97.2535,no,3950,paved,public,,https://www.airnav.com/airport/0B4,airport,faa,no
0B5,MA,TURNERS FALLS,MONTAGUE,FRANKLIN,42.59161111,-72.523,no,3200,paved,public,,https://www.airnav.com/airport/0B5,airport,faa,no
0B7,VT,WARREN-SUGARBUSH,WARREN,WASHINGTON,44.11738888,-72.827,no,2575,paved,public,,https://www.airnav.com/airport/0B7,airport,faa,no
0B8,NY,ELIZABETH FLD,FISHERS ISLAND,SUFFOLK,41.25213888,-72.03163888,no,2345,paved,public,,https://www.airnav.com/airport/0B8,airport,faa,no
0C0,IL,DACY,HARVARD,MC HENRY,42.40247222,-88.63238888,no,3589,unpaved,public,,https://www.airnav.com/airport/0C0,airport,faa,no
0C1,MO,TRIPLE R,DEARBORN,PLATTE,39.48775,-94.78113888,no,2375,paved,public,,https://www.airnav.com/airport/0C1,airport,faa,no
0C2,IL,HINCKLEY,HINCKLEY,DE KALB,41.77086277,-88.70341444,no,2640,unpaved,public,,https://www.airnav.com/airport/0C2,airport,faa,no
0C4,NE,PENDER MUNI,PENDER,THURSTON,42.11341811,-96.72781338,no,3600,paved,public,,https://www.airnav.com/airport/0C4,airport,faa,no
0C5,MI,CANADIAN LAKES,MECOSTA,MECOSTA,43.57701111,-85.284,no,3800,unpaved,public,,https://www.airnav.com/airport/0C5,airport,faa,no
0C8,IL,CUSHING FLD LTD,NEWARK,LA SALLE,41.519475,-88.60562888,no,2831,unpaved,public,,https://www.airnav.com/airport/0C8,airport,faa,no
0D7,OH,ADA,ADA,HARDIN,40.79060805,-83.82910388,no,1955,unpaved,public,,https://www.airnav.com/airport/0D7,airport,faa,no
0D8,SD,GETTYSBURG MUNI,GETTYSBURG,POTTER,44.98661111,-99.95288888,no,4400,paved,public,,https://www.airnav.com/airport/0D8,airport,faa,no
0E0,NM,MORIARTY MUNI,MORIARTY,TORRANCE,34.97816666,-106.00002777,no,7702,paved,public,,https://www.airnav.com/airport/0E0,airport,faa,no
0E8,NM,CROWNPOINT,CROWNPOINT,MC KINLEY,35.71765888,-108.20159611,no,5820,paved,public,,https://www.airnav.com/airport/0E8,airport,faa,no
0E9,IA,CORYDON,CORYDON,WAYNE,40.75622777,-93.24033611,no,3270,unpaved,public,,https://www.airnav.com/airport/0E9,airport,faa,no
0F2,TX,BOWIE MUNI,BOWIE,MONTAGUE,33.60166666,-97.77555555,no,3603,paved,public,,https://www.airnav.com/airport/0F2,airport,faa,no
0F3,IA,SPIRIT LAKE MUNI,SPIRIT LAKE,DICKINSON,43.38742083,-95.13946805,no,3015,paved,public,,https://www.airnav.com/airport/0F3,airport,faa,no
0F4,NE,LOUP CITY MUNI,LOUP CITY,SHERMAN,41.28636111,-98.99002777,no,3900,paved,public,,https://www.airnav.com/airport/0F4,airport,faa,no
0F7,OK,FOUNTAINHEAD LODGE AIRPARK,EUFAULA,MC INTOSH,35.38866666,-95.60027777,no,3000,paved,public,,https://www.airnav.com/airport/0F7,airport,faa,no
0F9,OK,TISHOMINGO AIRPARK,TISHOMINGO,JOHNSTON,34.1985,-96.6745,no,3100,paved,public,,https://www.airnav.com/airport/0F9,airport,faa,no
0G3,NE,TECUMSEH MUNI,TECUMSEH,JOHNSON,40.40094444,-96.17044444,no,3501,paved,public,,https://www.airnav.com/airport/0G3,airport,faa,no
0G6,OH,WILLIAMS COUNTY,BRYAN,WILLIAMS,41.46730555,-84.50677777,no,4782,paved,public,,https://www.airnav.com/airport/0G6,airport,faa,no
0G7,NY,FINGER LAKES RGNL,SENECA FALLS,SENECA,42.88355555,-76.78116666,no,4592,paved,public,,https://www.airnav.com/airport/0G7,airport,faa,no
0H1,KS,TREGO WAKEENEY,WAKEENEY,TREGO,39.00652777,-99.89294444,no,4008,paved,public,,https://www.airnav.com/airport/0H1,airport,faa,no
0H7,MO,KAHOKA MUNI,KAHOKA,CLARK,40.42172222,-91.70666666,no,2680,unpaved,public,,https://www.airnav.com/airport/0H7,airport,faa,no
0I2,IN,BRAZIL CLAY COUNTY,BRAZIL,CLAY,39.47673555,-87.09970916,no,2941,paved,public,,https://www.airnav.com/airport/0I2,airport,faa,no
0I8,KY,CYNTHIANA-HARRISON COUNTY,CYNTHIANA,HARRISON,38.36616388,-84.28334444,no,3850,paved,public,,https://www.airnav.com/airport/0I8,airport,faa,no
0ID,ID,W E RANCH,THATCHER,CARIBOU,42.44818625,-111.77754305,no,1350,unpaved,public,,https://www.airnav.com/airport/0ID,airport,faa,no
0J0,AL,ABBEVILLE MUNI,ABBEVILLE,HENRY,31.60172027,-85.23854472,no,5000,paved,public,,https://www.airnav.com/airport/0J0,airport,faa,no
0J4,AL,FLORALA MUNI,FLORALA,COVINGTON,31.04247361,-86.31156111,no,3197,paved,public,,https://www.airnav.com/airport/0J4,airport,faa,no
0J8,FL,FLYING TEN,ARCHER,ALACHUA,29.61942916,-82.50866805,no,3917,unpaved,public,,https://www.airnav.com/airport/0J8,airport,faa,no
0K6,OK,DOBIE'S,INOLA,ROGERS,36.17934722,-95.580275,no,1575,unpaved,public,,https://www.airnav.com/airport/0K6,airport,faa,no
0K7,IA,HUMBOLDT MUNI,HUMBOLDT,HUMBOLDT,42.73486111,-94.24547222,no,3417,paved,public,,https://www.airnav.com/airport/0K7,airport,faa,no
0L4,NV,LIDA JUNCTION,GOLDFIELD,ESMERALDA,37.49188888,-117.18841666,no,6100,unpaved,public,,https://www.airnav.com/airport/0L4,airport,faa,no
0L7,NV,JEAN,JEAN,CLARK,35.76826436,-115.32962197,no,4600,paved,public,,https://www.airnav.com/airport/0L7,airport,faa,no
0L9,NV,ECHO BAY,OVERTON,CLARK,36.31103786,-114.46389411,no,3400,paved,public,,https://www.airnav.com/airport/0L9,airport,faa,no
0M0,AR,BILLY FREE MUNI,DUMAS,DESHA,33.88452777,-91.53427777,no,5003,paved,public,,https://www.airnav.com/airport/0M0,airport,faa,no
0M2,TN,REELFOOT LAKE,TIPTONVILLE,LAKE,36.47533333,-89.34630555,no,3500,paved,public,,https://www.airnav.com/airport/0M2,airport,faa,no
0M3,TN,PAUL BRIDGES FLD,HOHENWALD,LEWIS,35.54597416,-87.59732444,no,4001,paved,public,,https://www.airnav.com/airport/0M3,airport,faa,no
0M4,TN,BENTON COUNTY,CAMDEN,BENTON,36.00954166,-88.12472777,no,5001,paved,public,,https://www.airnav.com/airport/0M4,airport,faa,no
0M5,TN,HUMPHREYS COUNTY,WAVERLY,HUMPHREYS,36.11661111,-87.73816666,no,4000,paved,public,,https://www.airnav.com/airport/0M5,airport,faa,no
0M8,LA,BYERLEY,LAKE PROVIDENCE,EAST CARROLL,32.82587916,-91.187665,no,3196,paved,public,,https://www.airnav.com/airport/0M8,airport,faa,no
0M9,LA,DELHI MUNI,DELHI,RICHLAND,32.41072222,-91.49852777,no,3000,paved,public,,https://www.airnav.com/airport/0M9,airport,faa,no
0N0,MO,ROOSTERVILLE,LIBERTY,CLAY,39.28983333,-94.44244444,no,2780,paved,public,,https://www.airnav.com/airport/0N0,airport,faa,no
0N4,DE,CHANDELLE,DOVER,KENT,39.20230555,-75.48541666,no,2533,paved,public,,https://www.airnav.com/airport/0N4,airport,faa,no
0O2,CA,BAKER,BAKER,SAN BERNARDINO,35.28627777,-116.08136111,no,3157,paved,public,,https://www.airnav.com/airport/0O2,airport,faa,no
0O4,CA,CORNING MUNI,CORNING,TEHAMA,39.94610805,-122.17111666,no,2699,paved,public,,https://www.airnav.com/airport/0O4,airport,faa,no
0O9,CA,WARD FLD,GASQUET,DEL NORTE,41.84558333,-123.98477777,no,2990,paved,public,,https://www.airnav.com/airport/0O9,airport,faa,no
0P1,KS,VAN PAK,PRAIRIE VIEW,PHILLIPS,39.83169444,-99.56844444,no,2590,unpaved,public,,https://www.airnav.com/airport/0P1,airport,faa,no
0P2,PA,SHOESTRING AVIATION AIRFIELD,STEWARTSTOWN,YORK,39.79625416,-76.64639305,no,1000,unpaved,public,,https://www.airnav.com/airport/0P2,airport,faa,no
0P8,PA,LAZY B RANCH,DOVER,YORK,40.02442361,-76.8153,no,2400,paved,public,,https://www.airnav.com/airport/0P8,airport,faa,no
0Q3,CA,SONOMA VALLEY,SCHELLVILLE/SONOMA,SONOMA,38.22394225,-122.449711,no,2700,paved,public,,https://www.airnav.com/airport/0Q3,airport,faa,no
0Q4,CA,SELMA,SELMA,FRESNO,36.5810005,-119.656978,no,2206,paved,public,,https://www.airnav.com/airport/0Q4,airport,faa,no
0Q5,CA,SHELTER COVE,SHELTER COVE,HUMBOLDT,40.02816666,-124.07430555,no,3407,paved,public,,https://www.airnav.com/airport/0Q5,airport,faa,no
0Q9,CA,SONOMA SKYPARK,SONOMA,SONOMA,38.25747222,-122.43455555,no,2490,paved,public,,https://www.airnav.com/airport/0Q9,airport,faa,no
0R0,MS,COLUMBIA/MARION COUNTY,COLUMBIA,MARION,31.29784638,-89.81148694,no,5500,paved,public,,https://www.airnav.com/airport/0R0,airport,faa,no
0R1,AL,ATMORE MUNI,ATMORE,ESCAMBIA,31.01613888,-87.44675,no,5001,paved,public,,https://www.airnav.com/airport/0R1,airport,faa,no
0R2,MO,LINCOLN MUNI,LINCOLN,BENTON,38.40233333,-93.33225,no,2940,unpaved,public,,https://www.airnav.com/airport/0R2,airport,faa,no
0R4,LA,CONCORDIA PARISH,VIDALIA,CONCORDIA,31.562,-91.50647222,no,3701,paved,public,,https://www.airnav.com/airport/0R4,airport,faa,no
0R5,LA,DAVID G JOYCE,WINNFIELD,WINN,31.96366222,-92.66026055,no,3002,paved,public,,https://www.airnav.com/airport/0R5,airport,faa,no
0R6,AR,HAMPTON MUNI,HAMPTON,CALHOUN,33.52261111,-92.46027777,no,4326,paved,public,,https://www.airnav.com/airport/0R6,airport,faa,no
0R7,LA,THE RED RIVER,COUSHATTA,RED RIVER,31.99027777,-93.30761111,no,5002,paved,public,,https://www.airnav.com/airport/0R7,airport,faa,no
0S0,WA,LIND,LIND,ADAMS,46.97684194,-118.58723111,no,3197,paved,public,,https://www.airnav.com/airport/0S0,airport,faa,no
0S1,MT,MEADOW CREEK USFS,MEADOW CREEK,FLATHEAD,47.84936516,-113.41741938,no,2830,unpaved,public,,https://www.airnav.com/airport/0S1,airport,faa,no
0S5,ID,NEZPERCE MUNI,NEZPERCE,LEWIS,46.23847327,-116.23856927,no,2443,paved,public,,https://www.airnav.com/airport/0S5,airport,faa,no
0S7,WA,DOROTHY SCOTT INTL,OROVILLE,OKANOGAN,48.95897222,-119.41197222,no,4017,paved,public,,https://www.airnav.com/airport/0S7,airport,faa,no
0S9,WA,JEFFERSON COUNTY INTL,PORT TOWNSEND,JEFFERSON,48.05380555,-122.81063888,no,3000,paved,public,,https://www.airnav.com/airport/0S9,airport,faa,no
0U0,ID,LANDMARK USFS,LANDMARK,VALLEY,44.64211111,-115.53338888,no,4000,unpaved,public,,https://www.airnav.com/airport/0U0,airport,faa,no
0U1,ID,WARM SPRINGS CREEK,LOWMAN,BOISE,44.14222222,-115.31405555,no,2850,unpaved,public,,https://www.airnav.com/airport/0U1,airport,faa,no
0U2,ID,COPPER BASIN,MACKAY,CUSTER,43.80197222,-113.83152777,no,4700,unpaved,public,,https://www.airnav.com/airport/0U2,airport,faa,no
0U3,ID,MAHONEY CREEK USFS,MAHONEY CREEK,VALLEY,44.74458333,-114.92138888,no,2150,unpaved,public,,https://www.airnav.com/airport/0U3,airport,faa,no
0U7,ID,HOLLOW TOP,CAREY,BLAINE,43.32375,-113.5905,no,2500,unpaved,public,,https://www.airnav.com/airport/0U7,airport,faa,no
0U8,ID,MAY,MAY,LEMHI,44.61033333,-113.89486111,no,4950,unpaved,public,,https://www.airnav.com/airport/0U8,airport,faa,no
0U9,ID,LEE WILLIAMS MEML,MIDVALE,WASHINGTON,44.46127777,-116.75802777,no,2875,paved,public,,https://www.airnav.com/airport/0U9,airport,faa,no
0V3,NE,PIONEER VILLAGE FLD,MINDEN,KEARNEY,40.51491666,-98.94563888,no,3900,paved,public,,https://www.airnav.com/airport/0V3,airport,faa,no
0V4,VA,BROOKNEAL/CAMPBELL COUNTY,BROOKNEAL,CAMPBELL,37.14172222,-79.01638888,no,3798,paved,public,,https://www.airnav.com/airport/0V4,airport,faa,no
0V7,AZ,KAYENTA,KAYENTA,NAVAJO,36.71644444,-110.22844444,no,7101,paved,public,,https://www.airnav.com/airport/0V7,airport,faa,no
0VG,VA,LEE COUNTY,JONESVILLE,LEE,36.654085,-83.21784666,no,5003,paved,public,,https://www.airnav.com/airport/0VG,airport,faa,no
0W3,MD,HARFORD COUNTY,CHURCHVILLE,HARFORD,39.56885666,-76.2041075,no,3354,paved,public,,https://www.airnav.com/airport/0W3,airport,faa,no
0Y6,IA,LAKE MILLS MUNI,LAKE MILLS,WINNEBAGO,43.41366666,-93.51175,no,3380,unpaved,public,,https://www.airnav.com/airport/0Y6,airport,faa,no
10C,IL,GALT FLD,GREENWOOD/WONDER LAKE,MC HENRY,42.40288888,-88.37511111,no,2802,paved,public,,https://www.airnav.com/airport/10C,airport,faa,no
10D,MN,WINSTED MUNI,WINSTED,MC LEOD,44.95385,-94.06539027,no,3248,unpaved,public,,https://www.airnav.com/airport/10D,airport,faa,no
10G,OH,HOLMES COUNTY,MILLERSBURG,HOLMES,40.53670125,-81.95594116,no,4400,paved,public,,https://www.airnav.com/airport/10G,airport,faa,no
10U,NV,OWYHEE,OWYHEE,ELKO,41.95362833,-116.18207,no,4700,paved,public,,https://www.airnav.com/airport/10U,airport,faa,no
10X,TX,OX RANCH,UVALDE,KINNEY,29.46148194,-100.11428916,no,5744,paved,public,,https://www.airnav.com/airport/10X,airport,faa,no
11A,AL,CLAYTON MUNI,CLAYTON,BARBOUR,31.88332444,-85.48522472,no,5010,paved,public,,https://www.airnav.com/airport/11A,airport,faa,no
11K,KS,SQUADRON FLD,ERIE,NEOSHO,37.46117222,-95.24194444,no,1970,unpaved,public,,https://www.airnav.com/airport/11K,airport,faa,no
11N,CT,CANDLELIGHT FARMS,NEW MILFORD,LITCHFIELD,41.56916666,-73.46208333,no,2900,unpaved,public,,https://www.airnav.com/airport/11N,airport,faa,no
11R,TX,BRENHAM MUNI,BRENHAM,WASHINGTON,30.2196755,-96.37440277,no,6003,paved,public,,https://www.airnav.com/airport/11R,airport,faa,no
11S,WA,SEKIU,SEKIU,CLALLAM,48.26611638,-124.31396472,no,2997,paved,public,,https://www.airnav.com/airport/11S,airport,faa,no
11V,CO,EASTON/VALLEY VIEW,GREELEY,WELD,40.32735694,-104.60939444,no,4000,unpaved,public,,https://www.airnav.com/airport/11V,airport,faa,no
11Y,WI,FLYING FEATHERS,CHILTON,CALUMET,44.06380005,-88.19195911,no,1680,unpaved,public,,https://www.airnav.com/airport/11Y,airport,faa,no
12A,AR,ARKAVALLEY,GREENBRIER,FAULKNER,35.17752961,-92.33506697,no,3133,paved,public,,https://www.airnav.com/airport/12A,airport,faa,no
12D,MN,TOWER MUNI,TOWER,ST LOUIS,47.81815555,-92.28606666,no,5000,water,public,,https://www.airnav.com/airport/12D,airport,faa,no
12G,OH,SHELBY COMMUNITY,SHELBY,RICHLAND,40.87286111,-82.69738888,no,3174,paved,public,,https://www.airnav.com/airport/12G,airport,faa,no
12J,AL,BREWTON MUNI,BREWTON,ESCAMBIA,31.05071138,-87.06726666,no,5136,paved,public,,https://www.airnav.com/airport/12J,airport,faa,no
12K,NE,SUPERIOR MUNI,SUPERIOR,NUCKOLLS,40.04619986,-98.06125544,no,4301,paved,public,,https://www.airnav.com/airport/12K,airport,faa,no
12N,NJ,AEROFLEX/ANDOVER,ANDOVER,SUSSEX,41.00861972,-74.73803388,no,1981,paved,public,,https://www.airnav.com/airport/12N,airport,faa,no
12S,OR,MONUMENT MUNI,MONUMENT,GRANT,44.83152777,-119.42966666,no,2104,paved,public,,https://www.airnav.com/airport/12S,airport,faa,no
12V,WV,ONA AIRPARK,MILTON,CABELL,38.44088888,-82.20077777,no,3154,paved,public,7037244288,https://www.airnav.com/airport/12V,airport,faa,no
12Y,MN,LE SUEUR MUNI,LE SUEUR,LE SUEUR,44.44088808,-93.91584727,no,3000,paved,public,,https://www.airnav.com/airport/12Y,airport,faa,no
13C,MI,LAKEVIEW/GRIFFITH FLD,LAKEVIEW,MONTCALM,43.45225,-85.26463888,no,3499,paved,public,,https://www.airnav.com/airport/13C,airport,faa,no
13K,KS,LT WILLIAM M MILLIKEN,EUREKA,GREENWOOD,37.85161611,-96.29202444,no,3504,paved,public,,https://www.airnav.com/airport/13K,airport,faa,no
13Q,NM,JEWETT MESA,APACHE CREEK,CATRON,34.00430555,-108.67977777,no,5200,unpaved,public,,https://www.airnav.com/airport/13Q,airport,faa,no
13W,WA,CAMANO ISLAND AIRFIELD,STANWOOD,ISLAND,48.25694444,-122.43619444,no,1750,paved,public,,https://www.airnav.com/airport/13W,airport,faa,no
13Y,MN,LITTLEFORK MUNI/HANOVER,LITTLEFORK,KOOCHICHING,48.40827777,-93.579425,no,3000,unpaved,public,,https://www.airnav.com/airport/13Y,airport,faa,no
14A,NC,LAKE NORMAN AIRPARK,MOORESVILLE,IREDELL,35.61386944,-80.89943055,no,3147,paved,public,,https://www.airnav.com/airport/14A,airport,faa,no
14G,OH,FREMONT,FREMONT,SANDUSKY,41.33308333,-83.16119444,no,4137,paved,public,,https://www.airnav.com/airport/14G,airport,faa,no
14J,AL,CARL FOLSOM,ELBA,COFFEE,31.41004166,-86.09033611,no,3050,paved,public,,https://www.airnav.com/airport/14J,airport,faa,no
14M,MS,HOLLANDALE MUNI,HOLLANDALE,WASHINGTON,33.18251488,-90.83049347,no,3000,paved,public,,https://www.airnav.com/airport/14M,airport,faa,no
14N,PA,BELTZVILLE,LEHIGHTON,CARBON,40.8442875,-75.63535416,no,2018,unpaved,public,,https://www.airnav.com/airport/14N,airport,faa,no
14S,WA,WESTPORT,WESTPORT,GRAYS HARBOR,46.89695083,-124.10074527,no,2318,paved,public,,https://www.airnav.com/airport/14S,airport,faa,no
14Y,MN,TODD FLD,LONG PRAIRIE,TODD,45.89759416,-94.87362277,no,3501,paved,public,,https://www.airnav.com/airport/14Y,airport,faa,no
15A,AL,MARK REYNOLDS/NORTH MOBILE COUNTY,CREOLA,MOBILE,30.90913888,-87.99633333,no,2000,unpaved,public,,https://www.airnav.com/airport/15A,airport,faa,no
15F,TX,HASKELL MUNI,HASKELL,HASKELL,33.19148686,-99.71787263,no,3420,paved,public,,https://www.airnav.com/airport/15F,airport,faa,no
15G,OH,WELTZIEN SKYPARK,WADSWORTH,MEDINA,41.02818472,-81.79814722,no,2410,paved,public,,https://www.airnav.com/airport/15G,airport,faa,no
15J,GA,COOK COUNTY,ADEL,COOK,31.13675777,-83.45422333,no,5502,paved,public,,https://www.airnav.com/airport/15J,airport,faa,no
15M,MS,SEGARS FLD,IUKA,TISHOMINGO,34.77333333,-88.16608333,no,4001,paved,public,,https://www.airnav.com/airport/15M,airport,faa,no
15N,DE,JENKINS,WYOMING,KENT,39.11733333,-75.58441666,no,2035,unpaved,public,,https://www.airnav.com/airport/15N,airport,faa,no
15Z,AK,MCCARTHY,MCCARTHY,VALDEZ-CORDOVA,61.43781908,-142.902503,no,3501,unpaved,public,9072837211,https://www.airnav.com/airport/15Z,airport,faa,no
16A,AK,NUNAPITCHUK,NUNAPITCHUK,BETHEL,60.906,-162.44058333,no,2420,unpaved,public,9072837211,https://www.airnav.com/airport/16A,airport,faa,no
16D,MN,PERHAM MUNI,PERHAM,OTTER TAIL,46.61097222,-95.60611111,no,4102,paved,public,,https://www.airnav.com/airport/16D,airport,faa,no
16G,OH,SENECA COUNTY,TIFFIN,SENECA,41.09405555,-83.2125,no,4000,paved,public,,https://www.airnav.com/airport/16G,airport,faa,no
16J,GA,DAWSON MUNI,DAWSON,TERRELL,31.74328805,-84.41929138,no,4507,paved,public,,https://www.airnav.com/airport/16J,airport,faa,no
16S,OR,MYRTLE CREEK MUNI,MYRTLE CREEK,DOUGLAS,42.99726111,-123.31534722,no,2600,paved,public,,https://www.airnav.com/airport/16S,airport,faa,no
16W,WA,LITTLE GOOSE LOCK AND DAM,STARBUCK,COLUMBIA,46.58394444,-118.00358333,no,3400,unpaved,public,,https://www.airnav.com/airport/16W,airport,faa,no
16X,TX,PROPWASH,JUSTIN,DENTON,33.08061111,-97.35841666,no,3000,paved,public,,https://www.airnav.com/airport/16X,airport,faa,no
17A,AR,TRIGGER GAP,BERRYVILLE,CARROLL,36.32825,-93.62221388,no,3000,unpaved,public,,https://www.airnav.com/airport/17A,airport,faa,no
17G,OH,PORT BUCYRUS/CRAWFORD COUNTY,BUCYRUS,CRAWFORD,40.78158333,-82.97480555,no,3895,paved,public,,https://www.airnav.com/airport/17G,airport,faa,no
17J,GA,DONALSONVILLE MUNI,DONALSONVILLE,SEMINOLE,31.00650722,-84.87763666,no,5512,paved,public,,https://www.airnav.com/airport/17J,airport,faa,no
17K,OK,BOISE CITY,BOISE CITY,CIMARRON,36.77430555,-102.51044444,no,4211,paved,public,,https://www.airnav.com/airport/17K,airport,faa,no
17M,MS,MAGEE MUNI,MAGEE,SIMPSON,31.862765,-89.80061444,no,3103,paved,public,,https://www.airnav.com/airport/17M,airport,faa,no
17N,NJ,CROSS KEYS,CROSS KEYS,GLOUCESTER,39.70547583,-75.03300305,no,3500,paved,public,,https://www.airnav.com/airport/17N,airport,faa,no
17Q,KS,HIEBERT AIRFIELD,GOESSEL,MARION,38.21538611,-97.35218472,no,1200,unpaved,public,,https://www.airnav.com/airport/17Q,airport,faa,no
17S,OR,CHEHALEM AIRPARK,NEWBERG,YAMHILL,45.32372777,-123.05426944,no,2285,paved,public,,https://www.airnav.com/airport/17S,airport,faa,no
17V,CO,HAXTUN MUNI,HAXTUN,PHILLIPS,40.62444444,-102.60797222,no,3860,paved,public,,https://www.airnav.com/airport/17V,airport,faa,no
18A,GA,FRANKLIN-HART,CANON,FRANKLIN,34.34036111,-83.13080555,no,5000,paved,public,,https://www.airnav.com/airport/18A,airport,faa,no
18I,KY,MC CREARY COUNTY,PINE KNOT,MC CREARY,36.69538888,-84.3915,no,2999,paved,public,,https://www.airnav.com/airport/18I,airport,faa,no
18K,KS,FOWLER,FOWLER,MEADE,37.38427777,-100.18619444,no,2310,unpaved,public,,https://www.airnav.com/airport/18K,airport,faa,no
18T,NM,TATUM,TATUM,LEA,33.26080555,-103.27848611,no,2920,paved,public,,https://www.airnav.com/airport/18T,airport,faa,no
18V,CO,PLATTE VALLEY AIRPARK,HUDSON,WELD,40.10272222,-104.70119444,no,4100,paved,public,,https://www.airnav.com/airport/18V,airport,faa,no
18Y,MN,MILACA MUNI,MILACA,MILLE LACS,45.77246472,-93.63218444,no,2900,unpaved,public,,https://www.airnav.com/airport/18Y,airport,faa,no
19M,MS,C A MOORE,LEXINGTON,HOLMES,33.12546111,-90.02555694,no,3199,paved,public,,https://www.airnav.com/airport/19M,airport,faa,no
19N,NJ,PINE VALLEY,BERLIN,CAMDEN,39.77844444,-74.94780555,no,3094,paved,public,,https://www.airnav.com/airport/19N,airport,faa,no
19S,KS,SUBLETTE MUNI,SUBLETTE,HASKELL,37.49686111,-100.83291666,no,4498,paved,public,,https://www.airnav.com/airport/19S,airport,faa,no
1A1,NY,GREEN ACRES,LIVINGSTON,COLUMBIA,42.14944444,-73.75047222,no,2275,unpaved,public,,https://www.airnav.com/airport/1A1,airport,faa,no
1A2,ND,ARTHUR,ARTHUR,CASS,47.11263611,-97.20814722,no,3100,unpaved,public,,https://www.airnav.com/airport/1A2,airport,faa,no
1A3,TN,MARTIN CAMPBELL FLD,COPPERHILL,POLK,35.01581611,-84.34683111,no,3500,paved,public,,https://www.airnav.com/airport/1A3,airport,faa,no
1A4,AL,LOGAN FLD,SAMSON,GENEVA,31.10370277,-86.0626,no,3596,paved,public,,https://www.airnav.com/airport/1A4,airport,faa,no
1A5,NC,MACON COUNTY,FRANKLIN,MACON,35.22231388,-83.41999472,no,5002,paved,public,,https://www.airnav.com/airport/1A5,airport,faa,no
1A6,KY,MIDDLESBORO/BELL COUNTY,MIDDLESBORO,BELL,36.61026,-83.73731527,no,3633,paved,public,,https://www.airnav.com/airport/1A6,airport,faa,no
1A7,TN,JACKSON COUNTY,GAINESBORO,JACKSON,36.39681694,-85.64132527,no,3497,paved,public,,https://www.airnav.com/airport/1A7,airport,faa,no
1A8,NV,GOLDFIELD,GOLDFIELD,ESMERALDA,37.72205861,-117.23636583,no,3150,paved,public,,https://www.airnav.com/airport/1A8,airport,faa,no
1A9,AL,PRATTVILLE/GROUBY FLD,PRATTVILLE,AUTAUGA,32.43872222,-86.51269444,no,5400,paved,public,,https://www.airnav.com/airport/1A9,airport,faa,no
1B0,ME,DEXTER RGNL,DEXTER,PENOBSCOT,45.0045075,-69.23743666,no,3008,paved,public,,https://www.airnav.com/airport/1B0,airport,faa,no
1B1,NY,COLUMBIA COUNTY,HUDSON,COLUMBIA,42.29130555,-73.71033333,no,5350,paved,public,,https://www.airnav.com/airport/1B1,airport,faa,no
1B2,MA,KATAMA AIRPARK,EDGARTOWN,DUKES,41.35845055,-70.52447055,no,3700,unpaved,public,,https://www.airnav.com/airport/1B2,airport,faa,no
1B5,NH,FRANCONIA,FRANCONIA,GRAFTON,44.19595036,-71.75070327,no,2300,unpaved,public,,https://www.airnav.com/airport/1B5,airport,faa,no
1B6,MA,HOPEDALE INDUSTRIAL PARK,HOPEDALE,WORCESTER,42.10648583,-71.51009,no,3172,paved,public,,https://www.airnav.com/airport/1B6,airport,faa,no
1B8,NY,CHAPIN FLD,CAMBRIDGE,WASHINGTON,43.05269444,-73.36313888,no,2130,unpaved,public,,https://www.airnav.com/airport/1B8,airport,faa,no
1B9,MA,MANSFIELD MUNI,MANSFIELD,BRISTOL,42.00087916,-71.19804111,no,3500,paved,public,,https://www.airnav.com/airport/1B9,airport,faa,no
1BT,MO,BONNE TERRE MUNI,BONNE TERRE,ST FRANCOIS,37.91898055,-90.57520277,no,2800,paved,public,,https://www.airnav.com/airport/1BT,airport,faa,no
1C1,IL,PAXTON,PAXTON,FORD,40.44897888,-88.12773805,no,3409,paved,public,,https://www.airnav.com/airport/1C1,airport,faa,no
1C3,NY,ARGYLE,ARGYLE,WASHINGTON,43.25452777,-73.47019444,no,2400,unpaved,public,,https://www.airnav.com/airport/1C3,airport,faa,no
1C5,IL,BOLINGBROOK'S CLOW INTL,BOLINGBROOK,WILL,41.69591666,-88.1295,no,3360,paved,public,,https://www.airnav.com/airport/1C5,airport,faa,no
1C8,IL,COTTONWOOD,ROCKFORD,WINNEBAGO,42.29168583,-89.13621833,no,2540,unpaved,public,,https://www.airnav.com/airport/1C8,airport,faa,no
1C9,CA,FRAZIER LAKE AIRPARK,HOLLISTER,SAN BENITO,36.95283333,-121.46263888,no,3000,water,public,,https://www.airnav.com/airport/1C9,airport,faa,no
1D1,SD,MILBANK MUNI,MILBANK,GRANT,45.2305,-96.56608333,no,4000,paved,public,,https://www.airnav.com/airport/1D1,airport,faa,no
1D2,MI,CANTON-PLYMOUTH-METTETAL,PLYMOUTH,WAYNE,42.34780555,-83.45633333,no,2302,paved,public,,https://www.airnav.com/airport/1D2,airport,faa,no
1D3,SD,PLATTE MUNI,PLATTE,CHARLES MIX,43.40471525,-98.83049091,no,3100,paved,public,,https://www.airnav.com/airport/1D3,airport,faa,no
1D4,OH,MAYFIELD,AKRON,SUMMIT,40.99255638,-81.43177916,no,2315,unpaved,public,,https://www.airnav.com/airport/1D4,airport,faa,no
1D6,MN,HECTOR MUNI,HECTOR,RENVILLE,44.73110252,-94.713786,no,2776,paved,public,,https://www.airnav.com/airport/1D6,airport,faa,no
1D7,SD,THE SIGURD ANDERSON,WEBSTER,DAY,45.29311111,-97.51361111,no,3705,paved,public,,https://www.airnav.com/airport/1D7,airport,faa,no
1D8,SD,REDFIELD MUNI,REDFIELD,SPINK,44.85656722,-98.53122833,no,3500,paved,public,,https://www.airnav.com/airport/1D8,airport,faa,no
1DA,ID,BIG BAR USFS,LUCILE,IDAHO,45.53457777,-116.53091666,no,1203,unpaved,public,,https://www.airnav.com/airport/1DA,airport,faa,no
1DS,SC,DRY SWAMP,ORANGEBURG,ORANGEBURG,33.38426111,-80.907025,no,2900,unpaved,public,,https://www.airnav.com/airport/1DS,airport,faa,no
1E2,TX,TERLINGUA RANCH,ALPINE,BREWSTER,29.4515,-103.39761111,no,4700,unpaved,public,,https://www.airnav.com/airport/1E2,airport,faa,no
1E4,TX,PALO DURO,AMARILLO,RANDALL,35.14372222,-101.83922222,no,3700,unpaved,public,,https://www.airnav.com/airport/1E4,airport,faa,no
1E7,TX,BUFFALO,AMARILLO,RANDALL,35.06388888,-101.87758333,no,6200,unpaved,public,,https://www.airnav.com/airport/1E7,airport,faa,no
1E8,NY,DEGRASSE MOORES,DEGRASSE,ST LAWRENCE,44.38791666,-75.06633333,no,2200,unpaved,public,,https://www.airnav.com/airport/1E8,airport,faa,no
1F0,OK,ARDMORE DOWNTOWN EXEC,ARDMORE,CARTER,34.14697222,-97.12266666,no,5014,paved,public,,https://www.airnav.com/airport/1F0,airport,faa,no
1F2,NY,PLATEAU SKY RANCH,EDINBURG,SARATOGA,43.22555194,-74.11445019,no,2400,unpaved,public,,https://www.airnav.com/airport/1F2,airport,faa,no
1F4,OK,MADILL MUNI,MADILL,MARSHALL,34.14040194,-96.81203222,no,3005,paved,public,,https://www.airnav.com/airport/1F4,airport,faa,no
1F5,KS,HOXIE-SHERIDAN COUNTY,HOXIE,SHERIDAN,39.36508333,-100.43808333,no,4400,paved,public,,https://www.airnav.com/airport/1F5,airport,faa,no
1F7,TX,AIRPARK EAST,DALLAS,ROCKWALL,32.81293338,-96.35203255,no,2630,paved,public,,https://www.airnav.com/airport/1F7,airport,faa,no
1G0,OH,WOOD COUNTY,BOWLING GREEN,WOOD,41.391,-83.63013888,no,4199,paved,public,,https://www.airnav.com/airport/1G0,airport,faa,no
1G1,OH,ELYRIA,ELYRIA,LORAIN,41.33152777,-82.10025,no,3053,paved,public,,https://www.airnav.com/airport/1G1,airport,faa,no
1G3,OH,KENT STATE UNIVERSITY,KENT,SUMMIT,41.15138888,-81.41511111,no,4000,paved,public,,https://www.airnav.com/airport/1G3,airport,faa,no
1G4,AZ,GRAND CANYON WEST,PEACH SPRINGS,MOHAVE,35.98611111,-113.81691666,no,5000,paved,public,,https://www.airnav.com/airport/1G4,airport,faa,no
1G5,OH,MEDINA MUNI,MEDINA,MEDINA,41.13144444,-81.76488888,no,3556,paved,public,,https://www.airnav.com/airport/1G5,airport,faa,no
1G8,OH,EDDIE DEW MEML AIRPARK,TORONTO,JEFFERSON,40.47598888,-80.62805972,no,2268,unpaved,public,,https://www.airnav.com/airport/1G8,airport,faa,no
1H0,MO,CREVE COEUR,ST LOUIS,ST LOUIS,38.72733333,-90.50841666,no,4500,paved,public,,https://www.airnav.com/airport/1H0,airport,faa,no
1H1,NY,AIRLANE ENTERPRISES,CLAY,ONONDAGA,43.20588888,-76.17930555,no,2220,unpaved,public,,https://www.airnav.com/airport/1H1,airport,faa,no
1H2,IL,EFFINGHAM COUNTY RGNL,EFFINGHAM,EFFINGHAM,39.07044444,-88.53352777,no,5103,paved,public,,https://www.airnav.com/airport/1H2,airport,faa,no
1H3,MO,STATE TECHNICAL COLLEGE OF MISSOURI,LINN,OSAGE,38.47161111,-91.81722222,no,3400,paved,public,,https://www.airnav.com/airport/1H3,airport,faa,no
1H4,NY,GREENVILLE-RAINBOW,GREENVILLE,GREENE,42.41970277,-74.00689166,no,1801,unpaved,public,,https://www.airnav.com/airport/1H4,airport,faa,no
1H5,MO,WILLOW SPRINGS MEML,WILLOW SPRINGS,HOWELL,36.98961805,-91.95407638,no,3502,paved,public,,https://www.airnav.com/airport/1H5,airport,faa,no
1H6,OK,HARVEY YOUNG,TULSA,TULSA,36.13891666,-95.82505555,no,2580,paved,public,,https://www.airnav.com/airport/1H6,airport,faa,no
1H8,IL,CASEY MUNI,CASEY,CLARK,39.30250916,-88.00406194,no,4001,paved,public,,https://www.airnav.com/airport/1H8,airport,faa,no
1H9,WI,NEST OF EAGLES,SPOONER,WASHBURN,45.83561575,-91.80283775,no,3600,unpaved,public,,https://www.airnav.com/airport/1H9,airport,faa,no
1I1,NY,MARCY FLD,KEENE,ESSEX,44.22085555,-73.78801111,no,2390,unpaved,public,,https://www.airnav.com/airport/1I1,airport,faa,no
1I3,IN,SHAWNEE FLD,BLOOMFIELD,GREENE,39.04272222,-87.00275,no,2160,unpaved,public,,https://www.airnav.com/airport/1I3,airport,faa,no
1I5,NY,FREEHOLD,FREEHOLD,GREENE,42.364,-74.06502777,no,2275,paved,public,,https://www.airnav.com/airport/1I5,airport,faa,no
1I8,IN,CONVERSE,CONVERSE,MIAMI,40.57320277,-85.89959722,no,1800,paved,public,,https://www.airnav.com/airport/1I8,airport,faa,no
1I9,IN,DELPHI MUNI,DELPHI,CARROLL,40.54081083,-86.68146638,no,4001,paved,public,,https://www.airnav.com/airport/1I9,airport,faa,no
1J9,FL,FORT WALTON BEACH,NAVARRE,SANTA ROSA,30.40630555,-86.82919444,no,2100,unpaved,public,,https://www.airnav.com/airport/1J9,airport,faa,no
1K1,KS,LLOYD STEARMAN FLD,BENTON,BUTLER,37.77444444,-97.11322222,no,5106,paved,public,,https://www.airnav.com/airport/1K1,airport,faa,no
1K2,OK,LINDSAY MUNI,LINDSAY,GARVIN,34.84945138,-97.58529166,no,3010,paved,public,,https://www.airnav.com/airport/1K2,airport,faa,no
1K4,OK,DAVID JAY PERRY,GOLDSBY,MC CLAIN,35.1550675,-97.47039388,no,3004,paved,public,,https://www.airnav.com/airport/1K4,airport,faa,no
1K5,OK,WAYNOKA MUNI,WAYNOKA,WOODS,36.5713,-98.85466388,no,3532,paved,public,,https://www.airnav.com/airport/1K5,airport,faa,no
1K6,KS,ELLINWOOD MUNI,ELLINWOOD,BARTON,38.37284027,-98.59864305,no,2550,unpaved,public,,https://www.airnav.com/airport/1K6,airport,faa,no
1K7,KS,FREDONIA,FREDONIA,WILSON,37.58070416,-95.83715555,no,4557,paved,public,,https://www.airnav.com/airport/1K7,airport,faa,no
1K8,OK,SOUTH GRAND LAKE RGNL,KETCHUM,CRAIG,36.54636111,-95.01352777,no,4730,paved,public,,https://www.airnav.com/airport/1K8,airport,faa,no
1K9,KS,SATANTA MUNI,SATANTA,HASKELL,37.45666666,-100.98461111,no,3250,paved,public,,https://www.airnav.com/airport/1K9,airport,faa,no
1KS,KS,LINN COUNTY,PLEASANTON,LINN,38.17343333,-94.690325,no,3000,paved,public,,https://www.airnav.com/airport/1KS,airport,faa,no
1L1,NV,LINCOLN COUNTY,PANACA,LINCOLN,37.78741666,-114.41988888,no,4606,paved,public,,https://www.airnav.com/airport/1L1,airport,faa,no
1L3,NV,SEARCHLIGHT,SEARCHLIGHT,CLARK,35.44455555,-114.90936111,no,5040,paved,public,,https://www.airnav.com/airport/1L3,airport,faa,no
1L4,NV,KIDWELL,CAL NEV ARI,CLARK,35.30590433,-114.88238683,no,4140,unpaved,public,,https://www.airnav.com/airport/1L4,airport,faa,no
1L7,UT,ESCALANTE MUNI,ESCALANTE,GARFIELD,37.74536111,-111.57016666,no,5032,paved,public,,https://www.airnav.com/airport/1L7,airport,faa,no
1L8,UT,GENERAL DICK STOUT FLD,HURRICANE,WASHINGTON,37.14021536,-113.30607991,no,3282,paved,public,,https://www.airnav.com/airport/1L8,airport,faa,no
1L9,UT,PAROWAN,PAROWAN,IRON,37.85963888,-112.81586111,no,5000,paved,public,,https://www.airnav.com/airport/1L9,airport,faa,no
1M2,MS,BELZONI MUNI,BELZONI,HUMPHREYS,33.14518055,-90.51528472,no,3000,paved,public,,https://www.airnav.com/airport/1M2,airport,faa,no
1M4,AL,POSEY FLD,HALEYVILLE,WINSTON,34.28033333,-87.60041666,no,5008,paved,public,,https://www.airnav.com/airport/1M4,airport,faa,no
1M5,TN,DOUGLAS HUNTER FLD,PORTLAND,SUMNER,36.59286583,-86.47691111,no,5003,paved,public,,https://www.airnav.com/airport/1M5,airport,faa,no
1M6,MT,STEVENS RANCH,ASHLAND,POWDER RIVER,45.28804291,-106.14529558,no,2268,unpaved,public,,https://www.airnav.com/airport/1M6,airport,faa,no
1M7,KY,FULTON,FULTON,FULTON,36.52563888,-88.91783333,no,4001,paved,public,,https://www.airnav.com/airport/1M7,airport,faa,no
1M8,MA,MYRICKS,BERKLEY,BRISTOL,41.83905555,-71.02647222,no,2466,unpaved,public,,https://www.airnav.com/airport/1M8,airport,faa,no
1M9,KY,LAKE BARKLEY STATE PARK,CADIZ,TRIGG,36.81780138,-87.90751666,no,4800,paved,public,,https://www.airnav.com/airport/1M9,airport,faa,no
1MO,MO,MOUNTAIN GROVE MEML,MOUNTAIN GROVE,WRIGHT,37.12086141,-92.31010666,no,2922,paved,public,,https://www.airnav.com/airport/1MO,airport,faa,no
1N1,NM,SANDIA AIRPARK ESTATES EAST,EDGEWOOD,SANTA FE,35.09461111,-106.16455555,no,4830,paved,public,,https://www.airnav.com/airport/1N1,airport,faa,no
1N3,PA,ALBERT,PHILIPSBURG,CLEARFIELD,40.9716875,-78.24297916,no,3350,unpaved,public,,https://www.airnav.com/airport/1N3,airport,faa,no
1N5,MD,BENNETT,SALISBURY,WICOMICO,38.41276933,-75.61693077,no,3171,unpaved,public,,https://www.airnav.com/airport/1N5,airport,faa,no
1N7,NJ,BLAIRSTOWN,BLAIRSTOWN,WARREN,40.97113313,-74.99750405,no,3112,paved,public,,https://www.airnav.com/airport/1N7,airport,faa,no
1O1,OK,GRANDFIELD MUNI,GRANDFIELD,TILLMAN,34.23758944,-98.74200916,no,3100,paved,public,,https://www.airnav.com/airport/1O1,airport,faa,no
1O2,CA,LAMPSON FLD,LAKEPORT,LAKE,38.99061111,-122.90072222,no,3600,paved,public,,https://www.airnav.com/airport/1O2,airport,faa,no
1O3,CA,LODI,LODI,SAN JOAQUIN,38.20244166,-121.26914166,no,3547,paved,public,,https://www.airnav.com/airport/1O3,airport,faa,no
1O4,OK,THOMAS MUNI,THOMAS,CUSTER,35.73366666,-98.73052777,no,3771,paved,public,,https://www.airnav.com/airport/1O4,airport,faa,no
1O5,CA,MONTAGUE-YREKA ROHRER FLD,MONTAGUE,SISKIYOU,41.72998333,-122.54448055,no,3360,paved,public,,https://www.airnav.com/airport/1O5,airport,faa,no
1O6,CA,DUNSMUIR MUNI-MOTT,DUNSMUIR,SISKIYOU,41.26291944,-122.2720375,no,2800,paved,public,,https://www.airnav.com/airport/1O6,airport,faa,no
1O8,OK,TIPTON MUNI,TIPTON,TILLMAN,34.458625,-99.17133333,no,3062,paved,public,,https://www.airnav.com/airport/1O8,airport,faa,no
1OK,OK,FAIRMONT FLD,FAIRMONT,GARFIELD,36.36523611,-97.66784166,no,2540,unpaved,public,,https://www.airnav.com/airport/1OK,airport,faa,no
1P1,NH,PLYMOUTH MUNI,PLYMOUTH,GRAFTON,43.77825416,-71.75385,no,2347,unpaved,public,,https://www.airnav.com/airport/1P1,airport,faa,no
1PP,OK,STILWELL / CHEROKEE NATION,STILWELL,ADAIR,35.75718472,-94.64985694,no,4208,paved,public,,https://www.airnav.com/airport/1PP,airport,faa,no
1Q1,CA,ECKERT FLD,STRATHMORE,TULARE,36.16238888,-119.05063888,no,2000,paved,public,,https://www.airnav.com/airport/1Q1,airport,faa,no
1Q2,CA,SPAULDING,SUSANVILLE,LASSEN,40.65030555,-120.76850888,no,4600,paved,public,,https://www.airnav.com/airport/1Q2,airport,faa,no
1Q4,CA,NEW JERUSALEM,TRACY,SAN JOAQUIN,37.67777777,-121.30119444,no,3530,paved,public,,https://www.airnav.com/airport/1Q4,airport,faa,no
1Q5,CA,GRAVELLY VALLEY,UPPER LAKE,LAKE,39.45072222,-122.95461111,no,4050,unpaved,public,,https://www.airnav.com/airport/1Q5,airport,faa,no
1QK,KS,GOVE COUNTY,QUINTER,GOVE,39.03859,-100.23388833,no,4000,paved,public,,https://www.airnav.com/airport/1QK,airport,faa,no
1R1,LA,JENA,JENA,LA SALLE,31.66881472,-92.15759555,no,4901,paved,public,,https://www.airnav.com/airport/1R1,airport,faa,no
1R4,LA,WOODWORTH,WOODWORTH,RAPIDES,31.12635277,-92.50128888,no,3100,paved,public,,https://www.airnav.com/airport/1R4,airport,faa,no
1R7,MS,BROOKHAVEN-LINCOLN COUNTY,BROOKHAVEN,LINCOLN,31.60583333,-90.40930555,no,5000,paved,public,,https://www.airnav.com/airport/1R7,airport,faa,no
1R8,AL,BAY MINETTE MUNI,BAY MINETTE,BALDWIN,30.87033333,-87.81933333,no,5500,paved,public,,https://www.airnav.com/airport/1R8,airport,faa,no
1RL,WA,POINT ROBERTS AIRPARK,POINT ROBERTS,WHATCOM,48.97713888,-123.07922222,no,2265,unpaved,public,,https://www.airnav.com/airport/1RL,airport,faa,no
1S1,ID,ECKHART INTL,PORTHILL,BOUNDARY,48.99047222,-116.50205555,no,3650,unpaved,public,,https://www.airnav.com/airport/1S1,airport,faa,no
1S2,WA,DARRINGTON MUNI,DARRINGTON,SNOHOMISH,48.2586125,-121.61020361,no,2491,paved,public,,https://www.airnav.com/airport/1S2,airport,faa,no
1S3,MT,TILLITT FLD,FORSYTH,ROSEBUD,46.27115077,-106.62390211,no,4799,paved,public,,https://www.airnav.com/airport/1S3,airport,faa,no
1S4,OK,SEILING,SEILING,DEWEY,36.15536111,-98.93369444,no,2435,paved,public,,https://www.airnav.com/airport/1S4,airport,faa,no
1S5,WA,SUNNYSIDE MUNI,SUNNYSIDE,YAKIMA,46.32707222,-119.97036222,no,3425,paved,public,,https://www.airnav.com/airport/1S5,airport,faa,no
1S6,ID,PRIEST RIVER MUNI,PRIEST RIVER,BONNER,48.19064611,-116.90986194,no,2983,paved,public,,https://www.airnav.com/airport/1S6,airport,faa,no
1S7,ID,SLATE CREEK,SLATE CREEK,IDAHO,45.67177777,-116.30572222,no,2600,unpaved,public,,https://www.airnav.com/airport/1S7,airport,faa,no
1S8,OR,ARLINGTON MUNI,ARLINGTON,GILLIAM,45.72255555,-120.17697222,no,5000,unpaved,public,,https://www.airnav.com/airport/1S8,airport,faa,no
1S9,WA,CHEWELAH MUNI,CHEWELAH,STEVENS,48.31395819,-117.74342597,no,3537,paved,public,,https://www.airnav.com/airport/1S9,airport,faa,no
1T7,TX,KESTREL AIRPARK,SAN ANTONIO,COMAL,29.81175,-98.42605555,no,3000,paved,public,,https://www.airnav.com/airport/1T7,airport,faa,no
1T8,TX,BULVERDE AIRPARK,SAN ANTONIO,COMAL,29.73936513,-98.45129444,no,2783,paved,public,,https://www.airnav.com/airport/1T8,airport,faa,no
1U0,ID,BEAR TRAP,MINIDOKA,BLAINE,42.97533333,-113.35075,no,2250,unpaved,public,,https://www.airnav.com/airport/1U0,airport,faa,no
1U1,ID,MOOSE CREEK /USFS/,MOOSE CREEK RANGER STATION,IDAHO,46.12631944,-114.92170277,no,4100,unpaved,public,,https://www.airnav.com/airport/1U1,airport,faa,no
1U2,ID,MUD LAKE/WEST JEFFERSON COUNTY,MUD LAKE,JEFFERSON,43.85126527,-112.50102777,no,2950,paved,public,,https://www.airnav.com/airport/1U2,airport,faa,no
1U3,ID,MURPHY,MURPHY,OWYHEE,43.21594444,-116.54836111,no,2500,paved,public,,https://www.airnav.com/airport/1U3,airport,faa,no
1U4,ID,NEW MEADOWS,NEW MEADOWS,ADAMS,44.978,-116.28391666,no,2400,unpaved,public,,https://www.airnav.com/airport/1U4,airport,faa,no
1U6,ID,OAKLEY MUNI,OAKLEY,CASSIA,42.23388888,-113.87763888,no,3795,unpaved,public,,https://www.airnav.com/airport/1U6,airport,faa,no
1U7,ID,BEAR LAKE COUNTY,PARIS,BEAR LAKE,42.24976111,-111.34162722,no,5728,paved,public,,https://www.airnav.com/airport/1U7,airport,faa,no
1U9,ID,PINE,PINE,ELMORE,43.46625,-115.31002777,no,2300,unpaved,public,,https://www.airnav.com/airport/1U9,airport,faa,no
1UT,UT,FREMONT ISLAND LOWER,HOOPER,WEBER,41.17568,-112.380385,no,1843,unpaved,public,,https://www.airnav.com/airport/1UT,airport,faa,no
1V0,NM,NAVAJO LAKE,NAVAJO DAM,SAN JUAN,36.80829055,-107.65261416,no,5022,paved,public,,https://www.airnav.com/airport/1V0,airport,faa,no
1V2,NE,GRANT COUNTY,HYANNIS,GRANT,42.00999444,-101.77006388,no,3975,paved,public,,https://www.airnav.com/airport/1V2,airport,faa,no
1V6,CO,FREMONT COUNTY,CANON CITY,FREMONT,38.42856022,-105.10685441,no,5399,paved,public,,https://www.airnav.com/airport/1V6,airport,faa,no
1V8,CO,LEACH,CENTER,SAGUACHE,37.78491666,-106.04691666,no,7000,paved,public,,https://www.airnav.com/airport/1V8,airport,faa,no
1W1,WA,GROVE FLD,CAMAS,CLARK,45.62782944,-122.40431138,no,2710,paved,public,,https://www.airnav.com/airport/1W1,airport,faa,no
1W3,MD,MEXICO FARMS,CUMBERLAND,ALLEGANY,39.6059875,-78.76045972,no,2120,unpaved,public,7037244288,https://www.airnav.com/airport/1W3,airport,faa,no
1WF,OH,WACO FLD,TROY,MIAMI,40.01479444,-84.19807916,no,2385,unpaved,public,,https://www.airnav.com/airport/1WF,airport,faa,no
1X1,TX,HIGGINS/LIPSCOMB COUNTY,HIGGINS,LIPSCOMB,36.10590277,-100.02570666,no,3969,paved,public,,https://www.airnav.com/airport/1X1,airport,faa,no
1Y3,IA,JUDGE LEWIS FLD/MOUNT AYR MUNI,MOUNT AYR,RINGGOLD,40.70638888,-94.22027777,no,2600,paved,public,,https://www.airnav.com/airport/1Y3,airport,faa,no
1Y5,IA,NEW HAMPTON MUNI,NEW HAMPTON,CHICKASAW,43.08719583,-92.3432325,no,2900,paved,public,,https://www.airnav.com/airport/1Y5,airport,faa,no
1Y9,IA,PAULLINA MUNI,PAULLINA,O BRIEN,42.98788888,-95.66447222,no,2800,paved,public,,https://www.airnav.com/airport/1Y9,airport,faa,no
1Z1,AZ,GRAND CANYON BAR TEN AIRSTRIP,WHITMORE,MOHAVE,36.2565,-113.23088888,no,4600,paved,public,,https://www.airnav.com/airport/1Z1,airport,faa,no
20A,AL,ROBBINS FLD,ONEONTA,BLOUNT,33.97127777,-86.38038888,no,4203,paved,public,,https://www.airnav.com/airport/20A,airport,faa,no
20K,AK,QUAIL CREEK,QUAIL CREEK,YUKON-KOYUKUK,65.35471944,-149.76137777,no,1650,unpaved,public,9074740788,https://www.airnav.com/airport/20K,airport,faa,no
20M,MS,MACON MUNI,MACON,NOXUBEE,33.13372222,-88.536,no,3000,paved,public,,https://www.airnav.com/airport/20M,airport,faa,no
20N,NY,KINGSTON-ULSTER,KINGSTON,ULSTER,41.98525,-73.96433333,no,3100,paved,public,,https://www.airnav.com/airport/20N,airport,faa,no
20R,TX,CRYSTAL CITY MUNI,CRYSTAL CITY,ZAVALA,28.69755555,-99.81766666,no,3550,paved,public,,https://www.airnav.com/airport/20R,airport,faa,no
20T,TX,ARESTI AERODROME,GODLEY,JOHNSON,32.47069472,-97.56030055,no,2500,unpaved,public,,https://www.airnav.com/airport/20T,airport,faa,no
20U,ND,BEACH,BEACH,GOLDEN VALLEY,46.92516666,-103.98205555,no,4200,paved,public,,https://www.airnav.com/airport/20U,airport,faa,no
20V,CO,MC ELROY AIRFIELD,KREMMLING,GRAND,40.05343416,-106.36897444,no,5540,paved,public,,https://www.airnav.com/airport/20V,airport,faa,no
21D,MN,LAKE ELMO,ST PAUL,WASHINGTON,44.99719694,-92.85368611,no,3504,paved,public,,https://www.airnav.com/airport/21D,airport,faa,no
21F,TX,JACKSBORO MUNI,JACKSBORO,JACK,33.22786111,-98.14644444,no,3220,paved,public,,https://www.airnav.com/airport/21F,airport,faa,no
21N,NY,MATTITUCK,MATTITUCK,SUFFOLK,40.98694444,-72.51913888,no,2200,paved,public,,https://www.airnav.com/airport/21N,airport,faa,no
21W,WA,RANGER CREEK,GREENWATER,PIERCE,47.01313888,-121.53366666,no,2875,paved,public,,https://www.airnav.com/airport/21W,airport,faa,no
22D,PA,BANDEL,EIGHTY FOUR,WASHINGTON,40.13059444,-80.09613888,no,2260,unpaved,public,,https://www.airnav.com/airport/22D,airport,faa,no
22F,TX,KENT COUNTY,JAYTON,KENT,33.22911111,-100.56911111,no,3300,paved,public,,https://www.airnav.com/airport/22F,airport,faa,no
22I,OH,VINTON COUNTY,MC ARTHUR,VINTON,39.32798888,-82.44115694,no,3500,paved,public,,https://www.airnav.com/airport/22I,airport,faa,no
22M,MS,PONTOTOC COUNTY,PONTOTOC,PONTOTOC,34.27555555,-89.03802777,no,3000,paved,public,,https://www.airnav.com/airport/22M,airport,faa,no
22N,PA,JAKE ARNER MEML,LEHIGHTON,CARBON,40.80950888,-75.76149638,no,3000,paved,public,,https://www.airnav.com/airport/22N,airport,faa,no
22S,OR,PAISLEY,PAISLEY,LAKE,42.71797222,-120.56277777,no,4300,paved,public,,https://www.airnav.com/airport/22S,airport,faa,no
22T,MI,TECUMSEH MILLS,TECUMSEH,LENAWEE,42.03384863,-83.87835352,no,4278,paved,public,,https://www.airnav.com/airport/22T,airport,faa,no
23D,MN,KARLSTAD MUNI,KARLSTAD,KITTSON,48.57760138,-96.54126805,no,2606,unpaved,public,,https://www.airnav.com/airport/23D,airport,faa,no
23M,MS,CLARKE COUNTY,QUITMAN,CLARKE,32.0859545,-88.73902519,no,3295,paved,public,,https://www.airnav.com/airport/23M,airport,faa,no
23N,NY,BAYPORT AERODROME,BAYPORT,SUFFOLK,40.75759611,-73.05268972,no,2750,unpaved,public,,https://www.airnav.com/airport/23N,airport,faa,no
23R,TX,DEVINE MUNI,DEVINE,MEDINA,29.13838888,-98.94188888,no,3399,paved,public,,https://www.airnav.com/airport/23R,airport,faa,no
23S,MT,SEELEY LAKE,SEELEY LAKE,MISSOULA,47.18194444,-113.44522222,no,4575,unpaved,public,,https://www.airnav.com/airport/23S,airport,faa,no
23W,WI,CORNUCOPIA FLD,CORNUCOPIA,BAYFIELD,46.8662178,-91.0836015,no,2120,unpaved,public,,https://www.airnav.com/airport/23W,airport,faa,no
24A,NC,JACKSON COUNTY,SYLVA,JACKSON,35.31721111,-83.20970361,no,3210,paved,public,,https://www.airnav.com/airport/24A,airport,faa,no
24C,MI,LOWELL CITY,LOWELL,KENT,42.95465833,-85.34561666,no,2700,paved,public,,https://www.airnav.com/airport/24C,airport,faa,no
24F,TX,CYPRESS RIVER,JEFFERSON,MARION,32.74430611,-94.30466138,no,3200,paved,public,,https://www.airnav.com/airport/24F,airport,faa,no
24J,FL,SUWANNEE COUNTY,LIVE OAK,SUWANNEE,30.30038888,-83.02438888,no,4005,paved,public,,https://www.airnav.com/airport/24J,airport,faa,no
24K,ID,KRASSEL USFS,MC CALL,VALLEY,44.97422222,-115.72975,no,1500,unpaved,public,,https://www.airnav.com/airport/24K,airport,faa,no
24M,MI,WILDERNESS AIRPARK,KENT CITY,KENT,43.24474638,-85.71170888,no,2543,unpaved,public,,https://www.airnav.com/airport/24M,airport,faa,no
24N,NM,JICARILLA APACHE NATION,DULCE,RIO ARRIBA,36.828535,-106.88419138,no,7500,paved,public,,https://www.airnav.com/airport/24N,airport,faa,no
24R,TX,DILLEY AIRPARK,DILLEY,FRIO,28.6855,-99.18908333,no,3400,paved,public,,https://www.airnav.com/airport/24R,airport,faa,no
24S,OR,PINEHURST STATE,PINEHURST,JACKSON,42.11019444,-122.38311111,no,2800,paved,public,,https://www.airnav.com/airport/24S,airport,faa,no
25D,MN,FOREST LAKE,FOREST LAKE,WASHINGTON,45.24740972,-92.99285416,no,2700,paved,public,,https://www.airnav.com/airport/25D,airport,faa,no
25J,GA,RANDOLPH COUNTY,CUTHBERT,RANDOLPH,31.70186727,-84.82700672,no,3000,paved,public,,https://www.airnav.com/airport/25J,airport,faa,no
25M,MS,RIPLEY,RIPLEY,TIPPAH,34.72272222,-89.01469444,no,4400,paved,public,,https://www.airnav.com/airport/25M,airport,faa,no
25U,OR,MEMALOOSE USFS,IMNAHA,WALLOWA,45.42786111,-116.69388888,no,3300,unpaved,public,,https://www.airnav.com/airport/25U,airport,faa,no
26A,AL,ASHLAND/LINEVILLE,ASHLAND/LINEVILLE,CLAY,33.28419722,-85.80896527,no,4023,paved,public,,https://www.airnav.com/airport/26A,airport,faa,no
26N,NJ,OCEAN CITY MUNI,OCEAN CITY,CAPE MAY,39.26347916,-74.60747638,no,2972,paved,public,,https://www.airnav.com/airport/26N,airport,faa,no
26R,TX,JACKSON COUNTY,EDNA,JACKSON,29.00099916,-96.58196194,no,3393,paved,public,,https://www.airnav.com/airport/26R,airport,faa,no
26U,OR,MC DERMITT STATE,MC DERMITT,MALHEUR,42.01030555,-117.72713888,no,5900,paved,public,,https://www.airnav.com/airport/26U,airport,faa,no
26W,MI,WOLF LAKE,NAPOLEON,JACKSON,42.20972222,-84.23166666,no,2155,unpaved,public,,https://www.airnav.com/airport/26W,airport,faa,no
27C,MI,MECOSTA MORTON,MECOSTA,MECOSTA,43.6300463,-85.26148936,no,2027,unpaved,public,,https://www.airnav.com/airport/27C,airport,faa,no
27K,KY,GEORGETOWN-SCOTT COUNTY RGNL,GEORGETOWN,SCOTT,38.23443416,-84.43468361,no,5498,paved,public,,https://www.airnav.com/airport/27K,airport,faa,no
27P,IA,ELDORA,ELDORA,HARDIN,42.32990555,-93.11428333,no,3035,unpaved,public,,https://www.airnav.com/airport/27P,airport,faa,no
27R,TX,ELDORADO,ELDORADO,SCHLEICHER,30.86222222,-100.61086111,no,4300,paved,public,,https://www.airnav.com/airport/27R,airport,faa,no
27W,WA,LAKE WENATCHEE STATE,LEAVENWORTH,CHELAN,47.81941361,-120.71989416,no,2473,unpaved,public,,https://www.airnav.com/airport/27W,airport,faa,no
28A,NC,GOOSE CREEK,INDIAN TRAIL,UNION,35.12097944,-80.58728944,no,2350,paved,public,,https://www.airnav.com/airport/28A,airport,faa,no
28J,FL,PALATKA MUNI/LT KAY LARKIN FLD,PALATKA,PUTNAM,29.658,-81.6901175,no,6000,paved,public,,https://www.airnav.com/airport/28J,airport,faa,no
28M,MA,CRANLAND,HANSON,PLYMOUTH,42.02513888,-70.83811111,no,1760,paved,public,,https://www.airnav.com/airport/28M,airport,faa,no
28N,NJ,VINELAND-DOWNSTOWN,VINELAND,GLOUCESTER,39.53958333,-74.96766666,no,2251,unpaved,public,,https://www.airnav.com/airport/28N,airport,faa,no
28U,OR,OWYHEE RESERVOIR STATE,OWYHEE,MALHEUR,43.42483333,-117.34566666,no,1840,unpaved,public,,https://www.airnav.com/airport/28U,airport,faa,no
28X,TX,GREEN ACRES AIRFIELD,PAMPA,GRAY,35.4541273,-100.9938148,no,3294,unpaved,public,,https://www.airnav.com/airport/28X,airport,faa,no
29C,MI,GRINDSTONE AIR HARBOR,PORT AUSTIN,HURON,44.04677777,-82.91441666,no,1800,unpaved,public,,https://www.airnav.com/airport/29C,airport,faa,no
29D,PA,GROVE CITY,GROVE CITY,MERCER,41.14602777,-80.16775,no,4500,paved,public,,https://www.airnav.com/airport/29D,airport,faa,no
29F,TX,JOE VAUGHN SPRAYING,KRESS,SWISHER,34.39283333,-101.75991666,no,3900,unpaved,public,,https://www.airnav.com/airport/29F,airport,faa,no
29N,NJ,KROELINGER,VINELAND,CUMBERLAND,39.52400416,-75.04634277,no,2086,unpaved,public,,https://www.airnav.com/airport/29N,airport,faa,no
29S,MT,GARDINER,GARDINER,PARK,45.04993555,-110.74660083,no,3200,paved,public,,https://www.airnav.com/airport/29S,airport,faa,no
2A0,TN,MARK ANTON,DAYTON,RHEA,35.48625,-84.93108333,no,5001,paved,public,,https://www.airnav.com/airport/2A0,airport,faa,no
2A1,TN,JAMESTOWN MUNI,JAMESTOWN,FENTRESS,36.34970361,-84.94665333,no,3498,paved,public,,https://www.airnav.com/airport/2A1,airport,faa,no
2A2,AR,HOLLEY MOUNTAIN AIRPARK,CLINTON,VAN BUREN,35.65071902,-92.40381294,no,4795,paved,public,,https://www.airnav.com/airport/2A2,airport,faa,no
2A3,AK,LARSEN BAY,LARSEN BAY,KODIAK ISLAND,57.53508333,-153.97666666,no,2690,unpaved,public,9072837211,https://www.airnav.com/airport/2A3,airport,faa,no
2A6,AR,HOLLY GROVE MUNI,HOLLY GROVE,MONROE,34.58244444,-91.16522222,no,4469,paved,public,,https://www.airnav.com/airport/2A6,airport,faa,no
2A8,AL,ADDISON MUNI,ADDISON,WINSTON,34.21714166,-87.15815833,no,2644,unpaved,public,,https://www.airnav.com/airport/2A8,airport,faa,no
2A9,AK,KOTLIK,KOTLIK,KUSILVAK,63.03058333,-163.53263888,no,4400,unpaved,public,9072837211,https://www.airnav.com/airport/2A9,airport,faa,no
2AK,AK,LIME VILLAGE,LIME VILLAGE,BETHEL,61.35913055,-155.44038611,no,1500,unpaved,public,9072837211,https://www.airnav.com/airport/2AK,airport,faa,no
2AN,AK,TISCHNER AIR,ANDERSON,DENALI,64.25450555,-149.19207777,no,1520,unpaved,public,9074740788,https://www.airnav.com/airport/2AN,airport,faa,no
2B1,MA,CAPE COD,MARSTON MILLS,BARNSTABLE,41.68527777,-70.40225,no,2700,unpaved,public,,https://www.airnav.com/airport/2B1,airport,faa,no
2B2,MA,PLUM ISLAND,NEWBURYPORT,ESSEX,42.79536111,-70.83944444,no,2300,unpaved,public,,https://www.airnav.com/airport/2B2,airport,faa,no
2B3,NH,PARLIN FLD,NEWPORT,SULLIVAN,43.38713527,-72.18761416,no,3446,paved,public,,https://www.airnav.com/airport/2B3,airport,faa,no
2B6,OH,HOLLISTER FLD,WILMINGTON,CLINTON,39.43756194,-83.70825611,no,3203,unpaved,public,,https://www.airnav.com/airport/2B6,airport,faa,no
2B7,ME,PITTSFIELD MUNI,PITTSFIELD,SOMERSET,44.76852777,-69.37441666,no,4003,paved,public,,https://www.airnav.com/airport/2B7,airport,faa,no
2B9,VT,POST MILLS,POST MILLS,ORANGE,43.88372222,-72.25208333,no,2900,unpaved,public,,https://www.airnav.com/airport/2B9,airport,faa,no
2C5,MI,ALMENA,PAW PAW,VAN BUREN,42.25298472,-85.85165416,no,3300,unpaved,public,,https://www.airnav.com/airport/2C5,airport,faa,no
2C6,IL,TRI-COUNTY,YATES CITY,KNOX,40.774,-90.07441666,no,2809,unpaved,public,,https://www.airnav.com/airport/2C6,airport,faa,no
2C7,AK,SHAKTOOLIK,SHAKTOOLIK,NOME,64.37108333,-161.22397222,no,4001,unpaved,public,4432291,https://www.airnav.com/airport/2C7,airport,faa,no
2C8,ND,CAVALIER MUNI,CAVALIER,PEMBINA,48.78372222,-97.63197222,no,3299,paved,public,,https://www.airnav.com/airport/2C8,airport,faa,no
2D1,OH,LEE FLD,ALLIANCE,STARK,40.96997075,-81.09866697,no,3500,unpaved,public,,https://www.airnav.com/airport/2D1,airport,faa,no
2D5,ND,OAKES MUNI,OAKES,DICKEY,46.17329611,-98.08003861,no,3505,paved,public,,https://www.airnav.com/airport/2D5,airport,faa,no
2D7,OH,BEACH CITY,BEACH CITY,STARK,40.64635138,-81.5559,no,3175,unpaved,public,,https://www.airnav.com/airport/2D7,airport,faa,no
2E2,MI,SHARPE'S STRIP,EMMETT,ST CLAIR,42.95160833,-82.77586527,no,2700,unpaved,public,,https://www.airnav.com/airport/2E2,airport,faa,no
2E5,TX,DELL CITY MUNI,DELL CITY,HUDSPETH,31.94762222,-105.19178333,no,4685,paved,public,,https://www.airnav.com/airport/2E5,airport,faa,no
2E6,SD,GROTON MUNI,GROTON,BROWN,45.53373611,-98.09392777,no,2500,unpaved,public,,https://www.airnav.com/airport/2E6,airport,faa,no
2E7,TX,MC LEAN/GRAY COUNTY,MC LEAN,GRAY,35.24686111,-100.54680555,no,3225,paved,public,,https://www.airnav.com/airport/2E7,airport,faa,no
2E8,MI,CACKLEBERRY,DEXTER,WASHTENAW,42.42513194,-83.86855416,no,2113,unpaved,public,,https://www.airnav.com/airport/2E8,airport,faa,no
2F0,TX,IRAAN MUNI,IRAAN,PECOS,30.90622222,-101.88980555,no,4085,paved,public,,https://www.airnav.com/airport/2F0,airport,faa,no
2F1,TX,SHAMROCK MUNI,SHAMROCK,WHEELER,35.23461111,-100.18530555,no,3600,paved,public,,https://www.airnav.com/airport/2F1,airport,faa,no
2F4,TX,T-BAR,TAHOKA,LYNN,33.181,-101.81938888,no,3278,paved,public,,https://www.airnav.com/airport/2F4,airport,faa,no
2F6,OK,SKIATOOK MUNI,SKIATOOK,OSAGE,36.35514416,-96.01072561,no,3002,paved,public,,https://www.airnav.com/airport/2F6,airport,faa,no
2F7,TX,COMMERCE MUNI,COMMERCE,HUNT,33.29286111,-95.89641666,no,3907,paved,public,,https://www.airnav.com/airport/2F7,airport,faa,no
2G1,OH,CONCORD AIRPARK,PAINESVILLE,LAKE,41.6670435,-81.19718336,no,2181,paved,public,,https://www.airnav.com/airport/2G1,airport,faa,no
2G2,OH,GEARY A BATES/JEFFERSON COUNTY AIRPARK,STEUBENVILLE,JEFFERSON,40.36061111,-80.70169444,no,5001,paved,public,,https://www.airnav.com/airport/2G2,airport,faa,no
2G4,MD,GARRETT COUNTY,OAKLAND,GARRETT,39.58080555,-79.33594444,no,5000,paved,public,7037244288,https://www.airnav.com/airport/2G4,airport,faa,no
2G5,TX,GRANITE SHOALS/ BOB SYLVESTER AIRPARK,GRANITE SHOALS,BURNET,30.58935472,-98.37030361,no,2000,unpaved,public,,https://www.airnav.com/airport/2G5,airport,faa,no
2G8,NH,GORHAM,GORHAM,COOS,44.39358194,-71.19808888,no,2828,unpaved,public,,https://www.airnav.com/airport/2G8,airport,faa,no
2G9,PA,SOMERSET COUNTY,SOMERSET,SOMERSET,40.03850313,-79.01529641,no,5002,paved,public,,https://www.airnav.com/airport/2G9,airport,faa,no
2GC,NC,GRAYS CREEK,FAYETTEVILLE,CUMBERLAND,34.89369166,-78.84353055,no,3500,paved,public,,https://www.airnav.com/airport/2GC,airport,faa,no
2H0,IL,SHELBY COUNTY,SHELBYVILLE,SHELBY,39.41130277,-88.84552222,no,4098,paved,public,,https://www.airnav.com/airport/2H0,airport,faa,no
2H2,MO,JERRY SUMNERS SR AURORA MUNI,AURORA,LAWRENCE,36.96230555,-93.69533333,no,3001,paved,public,,https://www.airnav.com/airport/2H2,airport,faa,no
2H5,TX,HOUSTON FORT BEND,HOUSTON,FORT BEND,29.49916666,-95.89838888,no,4400,unpaved,public,,https://www.airnav.com/airport/2H5,airport,faa,no
2H9,ND,ROLETTE,ROLETTE,ROLETTE,48.6668625,-99.85316111,no,3400,paved,public,,https://www.airnav.com/airport/2H9,airport,faa,no
2I0,KY,MADISONVILLE RGNL,MADISONVILLE,HOPKINS,37.3559275,-87.39821972,no,6051,paved,public,,https://www.airnav.com/airport/2I0,airport,faa,no
2I3,KY,ROUGH RIVER STATE PARK,FALLS-OF-ROUGH,GRAYSON,37.60981527,-86.50716527,no,3200,paved,public,,https://www.airnav.com/airport/2I3,airport,faa,no
2IS,FL,AIRGLADES,CLEWISTON,HENDRY,26.73517083,-81.05106,no,5902,paved,public,,https://www.airnav.com/airport/2IS,airport,faa,no
2J0,FL,WAKULLA COUNTY,PANACEA,WAKULLA,29.98945555,-84.39539166,no,2590,unpaved,public,,https://www.airnav.com/airport/2J0,airport,faa,no
2J3,GA,LOUISVILLE MUNI,LOUISVILLE,JEFFERSON,32.98594444,-82.38480555,no,5002,paved,public,,https://www.airnav.com/airport/2J3,airport,faa,no
2J5,GA,MILLEN,MILLEN,JENKINS,32.89302777,-81.96522222,no,5001,paved,public,,https://www.airnav.com/airport/2J5,airport,faa,no
2J8,FL,PIERSON MUNI,PIERSON,VOLUSIA,29.25002777,-81.45933333,no,2600,unpaved,public,,https://www.airnav.com/airport/2J8,airport,faa,no
2J9,FL,QUINCY MUNI,QUINCY,GADSDEN,30.59788638,-84.55744027,no,2974,paved,public,,https://www.airnav.com/airport/2J9,airport,faa,no
2K1,OK,POND CREEK MUNI,POND CREEK,GRANT,36.66253027,-97.80866611,no,2320,unpaved,public,,https://www.airnav.com/airport/2K1,airport,faa,no
2K4,OK,SCOTT FLD,MANGUM,GREER,34.89261111,-99.52822222,no,4199,paved,public,,https://www.airnav.com/airport/2K4,airport,faa,no
2K5,AK,TELIDA,TELIDA,KUSKOKWIM,63.37898472,-153.28421527,no,1900,unpaved,public,9072837211,https://www.airnav.com/airport/2K5,airport,faa,no
2K6,KS,ELK COUNTY,MOLINE,ELK,37.38091666,-96.27111111,no,2510,paved,public,,https://www.airnav.com/airport/2K6,airport,faa,no
2K7,KS,NEODESHA MUNI,NEODESHA,WILSON,37.43536444,-95.64611888,no,2998,paved,public,,https://www.airnav.com/airport/2K7,airport,faa,no
2K8,KS,ARGONIA MUNI,ARGONIA,SUMNER,37.27536666,-97.75875,no,3200,unpaved,public,,https://www.airnav.com/airport/2K8,airport,faa,no
2K9,OK,HASKELL,HASKELL,MUSKOGEE,35.83285252,-95.667417,no,3710,paved,public,,https://www.airnav.com/airport/2K9,airport,faa,no
2KL,TX,SUNRISE BEACH,SUNRISE BEACH VILLAGE,LLANO,30.59922222,-98.40922222,no,2649,unpaved,public,,https://www.airnav.com/airport/2KL,airport,faa,no
2L0,LA,PINEVILLE MUNI,PINEVILLE,RAPIDES,31.34219166,-92.44357777,no,3000,paved,public,,https://www.airnav.com/airport/2L0,airport,faa,no
2L1,ND,LARIMORE MUNI,LARIMORE,GRAND FORKS,47.90671388,-97.64097222,no,2914,paved,public,,https://www.airnav.com/airport/2L1,airport,faa,no
2M0,KY,PRINCETON-CALDWELL COUNTY,PRINCETON,CALDWELL,37.11513216,-87.85708216,no,4099,paved,public,,https://www.airnav.com/airport/2M0,airport,faa,no
2M1,MO,HARRY S TRUMAN RGNL,BATES CITY,LAFAYETTE,39.01963888,-94.0865,no,4400,unpaved,public,,https://www.airnav.com/airport/2M1,airport,faa,no
2M2,TN,LAWRENCEBURG/LAWRENCE COUNTY (FLEEMAN FLD),LAWRENCEBURG,LAWRENCE,35.23430111,-87.25794361,no,5002,paved,public,,https://www.airnav.com/airport/2M2,airport,faa,no
2M4,MS,G V MONTGOMERY,FOREST,SCOTT,32.35494444,-89.48816666,no,3602,paved,public,,https://www.airnav.com/airport/2M4,airport,faa,no
2M7,MI,HOFFMAN'S BLACK MOUNTAIN AERODROME,CHEBOYGAN,CHEBOYGAN,45.53161666,-84.30804444,no,2800,unpaved,public,,https://www.airnav.com/airport/2M7,airport,faa,no
2M8,TN,CHARLES W BAKER,MILLINGTON,SHELBY,35.27848038,-89.93299661,no,3499,paved,public,,https://www.airnav.com/airport/2M8,airport,faa,no
2MO,MO,MOUNT VERNON MUNI,MOUNT VERNON,LAWRENCE,37.06839027,-93.88493027,no,3195,paved,public,,https://www.airnav.com/airport/2MO,airport,faa,no
2N2,NH,NEWFOUND VALLEY,BRISTOL,GRAFTON,43.59201805,-71.75146805,no,1900,paved,public,,https://www.airnav.com/airport/2N2,airport,faa,no
2N5,PA,KAMPEL,WELLSVILLE,YORK,40.04950972,-76.97715,no,2550,unpaved,public,,https://www.airnav.com/airport/2N5,airport,faa,no
2N6,NJ,REDWING,JOBSTOWN,BURLINGTON,40.02708333,-74.69088888,no,1830,unpaved,public,,https://www.airnav.com/airport/2N6,airport,faa,no
2O1,CA,GANSNER FLD,QUINCY,PLUMAS,39.94391666,-120.94538888,no,4105,paved,public,,https://www.airnav.com/airport/2O1,airport,faa,no
2O3,CA,ANGWIN-PARRETT FLD,ANGWIN,NAPA,38.58002777,-122.43547222,no,3217,paved,public,,https://www.airnav.com/airport/2O3,airport,faa,no
2O6,CA,CHOWCHILLA,CHOWCHILLA,MADERA,37.11327777,-120.247,no,3253,paved,public,,https://www.airnav.com/airport/2O6,airport,faa,no
2O7,CA,INDEPENDENCE,INDEPENDENCE,INYO,36.81637238,-118.20493255,no,3533,paved,public,,https://www.airnav.com/airport/2O7,airport,faa,no
2O8,OK,HINTON MUNI,HINTON,CADDO,35.50722222,-98.34255555,no,4001,paved,public,,https://www.airnav.com/airport/2O8,airport,faa,no
2P2,WI,WASHINGTON ISLAND,WASHINGTON ISLAND,DOOR,45.38825458,-86.92404027,no,2250,unpaved,public,,https://www.airnav.com/airport/2P2,airport,faa,no
2P7,OH,ALDERMAN,ST CLAIRSVILLE,BELMONT,40.05686308,-80.96318794,no,2840,paved,public,,https://www.airnav.com/airport/2P7,airport,faa,no
2Q0,SC,FLYING W,HARTSVILLE,DARLINGTON,34.42892222,-80.06993888,no,1606,unpaved,public,,https://www.airnav.com/airport/2Q0,airport,faa,no
2Q9,NV,DYER,DYER,ESMERALDA,37.60965361,-118.00648888,no,2870,unpaved,public,,https://www.airnav.com/airport/2Q9,airport,faa,no
2R0,MS,WAYNESBORO MUNI,WAYNESBORO,WAYNE,31.64355388,-88.635095,no,5000,paved,public,,https://www.airnav.com/airport/2R0,airport,faa,no
2R1,LA,LE MAIRE MEML,JEANERETTE,IBERIA,29.89906944,-91.666,no,3000,paved,public,,https://www.airnav.com/airport/2R1,airport,faa,no
2R2,IN,HENDRICKS COUNTY-GORDON GRAHAM FLD,INDIANAPOLIS,HENDRICKS,39.74677777,-86.47516666,no,4400,paved,public,,https://www.airnav.com/airport/2R2,airport,faa,no
2R4,FL,PETER PRINCE FLD,MILTON,SANTA ROSA,30.6376225,-86.99365305,no,3703,paved,public,,https://www.airnav.com/airport/2R4,airport,faa,no
2R5,AL,ST ELMO,ST ELMO,MOBILE,30.50191666,-88.27511111,no,3998,paved,public,,https://www.airnav.com/airport/2R5,airport,faa,no
2R6,LA,BUNKIE MUNI,BUNKIE,AVOYELLES,30.95674722,-92.23409972,no,3005,paved,public,,https://www.airnav.com/airport/2R6,airport,faa,no
2R7,LA,FRANKLINTON,FRANKLINTON,WASHINGTON,30.81944444,-90.11252777,no,3000,paved,public,,https://www.airnav.com/airport/2R7,airport,faa,no
2R9,TX,KENEDY RGNL,KENEDY,KARNES,28.82498569,-97.86556833,no,3218,paved,public,,https://www.airnav.com/airport/2R9,airport,faa,no
2RR,FL,RIVER RANCH RESORT,RIVER RANCH,POLK,27.77933333,-81.20391666,no,4950,paved,public,,https://www.airnav.com/airport/2RR,airport,faa,no
2S0,WA,TWISP MUNI,TWISP,OKANOGAN,48.35058527,-120.09395083,no,2701,paved,public,,https://www.airnav.com/airport/2S0,airport,faa,no
2S1,WA,VASHON MUNI,VASHON,KING,47.45858861,-122.47697194,no,2001,unpaved,public,,https://www.airnav.com/airport/2S1,airport,faa,no
2S2,OR,BEAVER MARSH,BEAVER MARSH,KLAMATH,43.12752777,-121.80872222,no,4500,unpaved,public,,https://www.airnav.com/airport/2S2,airport,faa,no
2S4,WA,WARDEN,WARDEN,GRANT,46.96581522,-119.06633172,no,2811,paved,public,,https://www.airnav.com/airport/2S4,airport,faa,no
2S5,WA,WATERVILLE,WATERVILLE,DOUGLAS,47.65600444,-120.05646277,no,2978,paved,public,,https://www.airnav.com/airport/2S5,airport,faa,no
2S6,OR,SPORTSMAN AIRPARK,NEWBERG,YAMHILL,45.29567333,-122.95537833,no,2755,paved,public,,https://www.airnav.com/airport/2S6,airport,faa,no
2S7,OR,CHILOQUIN STATE,CHILOQUIN,KLAMATH,42.57931844,-121.87901416,no,3749,paved,public,,https://www.airnav.com/airport/2S7,airport,faa,no
2S8,WA,WILBUR,WILBUR,LINCOLN,47.75338888,-118.74391666,no,3851,paved,public,,https://www.airnav.com/airport/2S8,airport,faa,no
2S9,WA,WILLAPA HARBOR,SOUTH BEND/RAYMOND/,PACIFIC,46.69762055,-123.82338305,no,3005,paved,public,,https://www.airnav.com/airport/2S9,airport,faa,no
2T1,TX,MULESHOE MUNI,MULESHOE,BAILEY,34.18513638,-102.64109805,no,5100,paved,public,,https://www.airnav.com/airport/2T1,airport,faa,no
2T2,IL,PERCIVAL SPRINGS,WATSON,EFFINGHAM,39.01444444,-88.53927777,no,2000,unpaved,public,,https://www.airnav.com/airport/2T2,airport,faa,no
2TX,TX,SALADO,SALADO,BELL,30.9205785,-97.540105,no,3494,paved,public,,https://www.airnav.com/airport/2TX,airport,faa,no
2U0,ID,SMITH PRAIRIE,PRAIRIE,ELMORE,43.49836111,-115.54697222,no,5400,unpaved,public,,https://www.airnav.com/airport/2U0,airport,faa,no
2U4,ID,ROCKFORD MUNI,ROCKFORD,BINGHAM,43.1895,-112.53180555,no,2800,paved,public,,https://www.airnav.com/airport/2U4,airport,faa,no
2U5,ID,SHEARER /USFS/,SHEARER,IDAHO,45.9895,-114.84127777,no,2000,unpaved,public,,https://www.airnav.com/airport/2U5,airport,faa,no
2U7,ID,STANLEY,STANLEY,CUSTER,44.20855555,-114.93452777,no,4300,paved,public,,https://www.airnav.com/airport/2U7,airport,faa,no
2U8,ID,THOMAS CREEK,STANLEY,VALLEY,44.72330555,-115.00397222,no,2100,unpaved,public,,https://www.airnav.com/airport/2U8,airport,faa,no
2UT,UT,FREMONT ISLAND UPPER,HOOPER,WEBER,41.15937722,-112.33308,no,1980,unpaved,public,,https://www.airnav.com/airport/2UT,airport,faa,no
2V5,CO,WRAY MUNI,WRAY,YUMA,40.10039694,-102.2411725,no,5399,paved,public,,https://www.airnav.com/airport/2V5,airport,faa,no
2V6,CO,YUMA MUNI,YUMA,YUMA,40.10571047,-102.71443769,no,4201,paved,public,,https://www.airnav.com/airport/2V6,airport,faa,no
2VA,IA,ZANGGER VINTAGE AIRPARK,LARCHWOOD,LYON,43.45063077,-96.40466586,no,3146,unpaved,public,,https://www.airnav.com/airport/2VA,airport,faa,no
2W1,WA,DE VERE FLD,CLE ELUM,KITTITAS,47.17758111,-120.85266083,no,2055,paved,public,,https://www.airnav.com/airport/2W1,airport,faa,no
2W2,MD,CLEARVIEW AIRPARK,WESTMINSTER,CARROLL,39.46701833,-77.01743194,no,1840,paved,public,,https://www.airnav.com/airport/2W2,airport,faa,no
2W3,WA,SWANSON FLD,EATONVILLE,PIERCE,46.87166666,-122.25722222,no,2990,paved,public,,https://www.airnav.com/airport/2W3,airport,faa,no
2W5,MD,MARYLAND,INDIAN HEAD,CHARLES,38.59704861,-77.07245833,no,3740,paved,public,,https://www.airnav.com/airport/2W5,airport,faa,no
2W6,MD,ST MARY'S COUNTY RGNL,LEONARDTOWN,ST MARYS,38.31570861,-76.55215888,no,5350,paved,public,,https://www.airnav.com/airport/2W6,airport,faa,no
2Y1,IA,DRAKE,RADCLIFFE,HARDIN,42.31751388,-93.4151625,no,2480,unpaved,public,,https://www.airnav.com/airport/2Y1,airport,faa,no
2Y4,IA,ROCKWELL CITY MUNI,ROCKWELL CITY,CALHOUN,42.38782222,-94.61890277,no,3503,paved,public,,https://www.airnav.com/airport/2Y4,airport,faa,no
2Z2,AK,EUREKA CREEK,EUREKA CREEK,YUKON-KOYUKUK,65.17591138,-150.22053861,no,1500,unpaved,public,9074740788,https://www.airnav.com/airport/2Z2,airport,faa,no
2Z3,AK,EVA CREEK,EVA CREEK,FAIRBANKS NORTH STAR,64.04211111,-148.86313888,no,950,unpaved,public,9074740788,https://www.airnav.com/airport/2Z3,airport,faa,no
30F,TX,LAKEVIEW,LAKE DALLAS,DENTON,33.13138888,-97.01419444,no,2815,paved,public,,https://www.airnav.com/airport/30F,airport,faa,no
30K,KS,INGALLS MUNI,INGALLS,GRAY,37.90686111,-100.53141666,no,3000,paved,public,,https://www.airnav.com/airport/30K,airport,faa,no
30M,MS,RALPH M SHARPE,TUNICA,TUNICA,34.65908333,-90.37622222,no,2508,paved,public,,https://www.airnav.com/airport/30M,airport,faa,no
31D,PA,INTER COUNTY,IRWIN,WESTMORELAND,40.3334025,-79.77921222,no,1800,unpaved,public,,https://www.airnav.com/airport/31D,airport,faa,no
31E,NJ,EAGLES NEST,WEST CREEK,OCEAN,39.66545416,-74.30804444,no,3670,paved,public,,https://www.airnav.com/airport/31E,airport,faa,no
32A,AR,DANVILLE MUNI,DANVILLE,YELL,35.0872625,-93.42892416,no,4466,paved,public,,https://www.airnav.com/airport/32A,airport,faa,no
32S,MT,STEVENSVILLE,STEVENSVILLE,RAVALLI,46.52511111,-114.05280555,no,3809,paved,public,,https://www.airnav.com/airport/32S,airport,faa,no
33A,SC,FAIRVIEW,LANDRUM,SPARTANBURG,35.15733333,-82.12375,no,2770,paved,public,,https://www.airnav.com/airport/33A,airport,faa,no
33J,AL,GENEVA MUNI,GENEVA,GENEVA,31.052625,-85.86894444,no,3998,paved,public,,https://www.airnav.com/airport/33J,airport,faa,no
33K,KS,KINSLEY MUNI,KINSLEY,EDWARDS,37.90899444,-99.40310555,no,3290,paved,public,,https://www.airnav.com/airport/33K,airport,faa,no
33M,MS,WATER VALLEY MUNI,WATER VALLEY,YALOBUSHA,34.16786111,-89.68488888,no,3000,paved,public,,https://www.airnav.com/airport/33M,airport,faa,no
33N,DE,DELAWARE AIRPARK,DOVER/CHESWOLD,KENT,39.21869444,-75.60047222,no,4201,paved,public,,https://www.airnav.com/airport/33N,airport,faa,no
33R,TX,GROVETON/TRINITY COUNTY,GROVETON,TRINITY,31.08433333,-95.16411111,no,3500,paved,public,,https://www.airnav.com/airport/33R,airport,faa,no
33S,WA,PRU FLD,RITZVILLE,ADAMS,47.12345277,-118.38932777,no,3433,paved,public,,https://www.airnav.com/airport/33S,airport,faa,no
33U,UT,DUTCH JOHN,DUTCH JOHN,DAGGETT,40.9178125,-109.39066069,no,6000,paved,public,,https://www.airnav.com/airport/33U,airport,faa,no
33V,CO,WALDEN-JACKSON COUNTY,WALDEN,JACKSON,40.75038888,-106.27152777,no,5900,paved,public,,https://www.airnav.com/airport/33V,airport,faa,no
34G,MI,MERILLAT,TECUMSEH,LENAWEE,41.975045,-83.92521916,no,3608,unpaved,public,,https://www.airnav.com/airport/34G,airport,faa,no
34M,MO,CAMPBELL MUNI,CAMPBELL,DUNKLIN,36.48605555,-90.01569444,no,3000,paved,public,,https://www.airnav.com/airport/34M,airport,faa,no
34R,TX,HALLETTSVILLE MUNI,HALLETTSVILLE,LAVACA,29.38995833,-96.95605972,no,3210,paved,public,,https://www.airnav.com/airport/34R,airport,faa,no
35A,SC,"UNION COUNTY, TROY SHELTON FLD",UNION,UNION,34.68694916,-81.64116444,no,3508,paved,public,,https://www.airnav.com/airport/35A,airport,faa,no
35C,MI,WELLS,ROCKFORD,KENT,43.12863333,-85.50518611,no,2200,unpaved,public,,https://www.airnav.com/airport/35C,airport,faa,no
35D,MI,PADGHAM FLD,ALLEGAN,ALLEGAN,42.53043652,-85.823779,no,4300,paved,public,,https://www.airnav.com/airport/35D,airport,faa,no
35S,OR,WASCO STATE,WASCO,SHERMAN,45.58920416,-120.67398472,no,3450,paved,public,,https://www.airnav.com/airport/35S,airport,faa,no
35X,TX,TRIPLE-ACE FLD,DECATUR,WISE,33.25185555,-97.55355555,no,1271,unpaved,public,,https://www.airnav.com/airport/35X,airport,faa,no
36K,KS,KEARNY COUNTY,LAKIN,KEARNY,37.96944444,-101.25558333,no,3410,paved,public,,https://www.airnav.com/airport/36K,airport,faa,no
36S,CA,HAPPY CAMP,HAPPY CAMP,SISKIYOU,41.79067944,-123.38894444,no,3000,paved,public,,https://www.airnav.com/airport/36S,airport,faa,no
37F,TX,MUNDAY MUNI,MUNDAY,KNOX,33.46872222,-99.58622222,no,3200,paved,public,,https://www.airnav.com/airport/37F,airport,faa,no
37M,MO,HORNERSVILLE MEML,HORNERSVILLE,DUNKLIN,36.04199741,-90.14913438,no,2648,paved,public,,https://www.airnav.com/airport/37M,airport,faa,no
37N,ND,GARRISON DAM RECREATIONAL AIRPARK,RIVERDALE,MC LEAN,47.48272777,-101.40814861,no,3195,unpaved,public,,https://www.airnav.com/airport/37N,airport,faa,no
37S,MT,FORT PECK,FORT PECK,VALLEY,48.00483333,-106.47788888,no,4100,unpaved,public,,https://www.airnav.com/airport/37S,airport,faa,no
37T,AR,CALICO ROCK MUNI,CALICO ROCK,IZARD,36.16573027,-92.14531138,no,3002,paved,public,,https://www.airnav.com/airport/37T,airport,faa,no
37V,NE,ARAPAHOE MUNI,ARAPAHOE,FURNAS,40.34158333,-99.90780555,no,3000,paved,public,,https://www.airnav.com/airport/37V,airport,faa,no
38C,MI,CAIN FLD,STANWOOD,MECOSTA,43.59847222,-85.49247222,no,3472,unpaved,public,,https://www.airnav.com/airport/38C,airport,faa,no
38D,OH,SALEM AIRPARK,SALEM,MAHONING,40.94808083,-80.86208194,no,3404,paved,public,,https://www.airnav.com/airport/38D,airport,faa,no
38I,OH,COOK,URBANA,CHAMPAIGN,40.09116805,-83.68936944,no,2650,unpaved,public,,https://www.airnav.com/airport/38I,airport,faa,no
38K,KS,LUCAS,LUCAS,RUSSELL,39.061955,-98.52534416,no,2904,paved,public,,https://www.airnav.com/airport/38K,airport,faa,no
38N,DE,SMYRNA,SMYRNA,KENT,39.30366666,-75.58380555,no,2600,unpaved,public,,https://www.airnav.com/airport/38N,airport,faa,no
38S,MT,DEER LODGE-CITY-COUNTY,DEER LODGE,POWELL,46.38783333,-112.76494444,no,5800,paved,public,,https://www.airnav.com/airport/38S,airport,faa,no
38U,UT,WAYNE WONDERLAND,LOA,WAYNE,38.36291444,-111.59598666,no,5693,paved,public,,https://www.airnav.com/airport/38U,airport,faa,no
38W,WA,LYNDEN MUNI/JANSEN FLD,LYNDEN,WHATCOM,48.95589611,-122.45811833,no,2425,paved,public,,https://www.airnav.com/airport/38W,airport,faa,no
39G,MI,AVOCA,AVOCA,ST CLAIR,43.03047777,-82.66946388,no,2105,unpaved,public,,https://www.airnav.com/airport/39G,airport,faa,no
39K,KS,DRAGOON CREEK,LYNDON,OSAGE,38.69172222,-95.69016666,no,2170,paved,public,,https://www.airnav.com/airport/39K,airport,faa,no
39N,NJ,PRINCETON,PRINCETON/ROCKY HILL,SOMERSET,40.39908888,-74.65900638,no,3499,paved,public,,https://www.airnav.com/airport/39N,airport,faa,no
39P,WA,STROM FLD,MORTON,LEWIS,46.55036083,-122.26662583,no,1810,paved,public,,https://www.airnav.com/airport/39P,airport,faa,no
39T,MI,TRIPP CREEK,ST JOHNS,CLINTON,43.06475277,-84.48915166,no,2509,unpaved,public,,https://www.airnav.com/airport/39T,airport,faa,no
39Z,MI,FLYING-A-RANCH,FRUITPORT,OTTAWA,43.10511388,-86.12126944,no,1925,unpaved,public,,https://www.airnav.com/airport/39Z,airport,faa,no
3A2,TN,NEW TAZEWELL MUNI,TAZEWELL,CLAIBORNE,36.40889722,-83.55718583,no,5208,paved,public,,https://www.airnav.com/airport/3A2,airport,faa,no
3A4,NC,GREENSBORO EXEC,GREENSBORO,GUILFORD,35.94194833,-79.68550933,no,3064,paved,public,,https://www.airnav.com/airport/3A4,airport,faa,no
3A5,NV,FLYING M RANCH,YERINGTON,LYON,38.61275033,-119.00232019,no,5662,paved,public,,https://www.airnav.com/airport/3A5,airport,faa,no
3A7,AL,EUTAW MUNI,EUTAW,GREENE,32.82041666,-87.86508333,no,3600,paved,public,,https://www.airnav.com/airport/3A7,airport,faa,no
3A9,SD,ARLINGTON MUNI,ARLINGTON,BROOKINGS,44.39382916,-97.12294769,no,3000,unpaved,public,,https://www.airnav.com/airport/3A9,airport,faa,no
3AK,AK,DRY BAY,YAKUTAT,ALEUTIAN ISLANDS,59.16433333,-138.48880555,no,3600,unpaved,public,9075867380,https://www.airnav.com/airport/3AK,airport,faa,no
3AU,KS,AUGUSTA MUNI,AUGUSTA,BUTLER,37.66983444,-97.07802611,no,4501,paved,public,,https://www.airnav.com/airport/3AU,airport,faa,no
3B0,MA,SOUTHBRIDGE MUNI,SOUTHBRIDGE,WORCESTER,42.10111111,-72.03883333,no,3501,paved,public,,https://www.airnav.com/airport/3B0,airport,faa,no
3B1,ME,GREENVILLE MUNI,GREENVILLE,PISCATAQUIS,45.46283138,-69.55164944,no,4000,paved,public,,https://www.airnav.com/airport/3B1,airport,faa,no
3B3,MA,STERLING,STERLING,WORCESTER,42.4259025,-71.79285083,no,3086,paved,public,,https://www.airnav.com/airport/3B3,airport,faa,no
3B4,ME,SEACOAST AIRFIELD,ELIOT,YORK,43.1431343,-70.77343611,no,2701,paved,public,,https://www.airnav.com/airport/3B4,airport,faa,no
3B8,WA,SHADY ACRES,SPANAWAY,PIERCE,47.07038888,-122.37108333,no,1800,paved,public,,https://www.airnav.com/airport/3B8,airport,faa,no
3C1,IN,MISHAWAKA PILOTS CLUB,ELKHART,ELKHART,41.65699305,-86.03472388,no,3140,unpaved,public,,https://www.airnav.com/airport/3C1,airport,faa,no
3CK,IL,LAKE IN THE HILLS,CHICAGO/LAKE IN THE HILLS,MC HENRY,42.20686111,-88.32269444,no,3800,paved,public,,https://www.airnav.com/airport/3CK,airport,faa,no
3CM,MI,JAMES CLEMENTS MUNI,BAY CITY,BAY,43.54694444,-83.89547222,no,3798,paved,public,,https://www.airnav.com/airport/3CM,airport,faa,no
3CU,WI,CABLE UNION,CABLE,BAYFIELD,46.19493305,-91.24845305,no,3709,paved,public,,https://www.airnav.com/airport/3CU,airport,faa,no
3D1,WI,CRIVITZ MUNI,CRIVITZ,MARINETTE,45.21464086,-88.07329816,no,2545,paved,public,,https://www.airnav.com/airport/3D1,airport,faa,no
3D2,WI,EPHRAIM/GIBRALTAR,EPHRAIM,DOOR,45.13542388,-87.1879425,no,2697,paved,public,,https://www.airnav.com/airport/3D2,airport,faa,no
3DA,MI,DALTON,FLUSHING,GENESEE,43.05684069,-83.80460008,no,2510,paved,public,,https://www.airnav.com/airport/3DA,airport,faa,no
3DW,MO,DOWNTOWN,SPRINGFIELD,GREENE,37.22270555,-93.24834861,no,4037,paved,public,,https://www.airnav.com/airport/3DW,airport,faa,no
3E0,TX,MIAMI-ROBERTS COUNTY,MIAMI,ROBERTS,35.71393222,-100.60319222,no,4060,paved,public,,https://www.airnav.com/airport/3E0,airport,faa,no
3EV,IN,SKYLANE,EVANSVILLE,VANDERBURGH,38.01194444,-87.59486111,no,2227,unpaved,public,,https://www.airnav.com/airport/3EV,airport,faa,no
3EX,MO,EXCELSIOR SPRINGS MEML,EXCELSIOR SPRINGS,RAY,39.33727777,-94.19741666,no,2004,paved,public,,https://www.airnav.com/airport/3EX,airport,faa,no
3F2,TX,CISCO MUNI,CISCO,EASTLAND,32.41502777,-98.99683333,no,3700,paved,public,,https://www.airnav.com/airport/3F2,airport,faa,no
3F3,LA,C E 'RUSTY' WILLIAMS,MANSFIELD,DE SOTO,32.07277777,-93.76561111,no,5005,paved,public,,https://www.airnav.com/airport/3F3,airport,faa,no
3F4,LA,VIVIAN,VIVIAN,CADDO,32.86133333,-94.01015361,no,2998,paved,public,,https://www.airnav.com/airport/3F4,airport,faa,no
3F5,MI,FOREST HILL,WESTPHALIA,CLINTON,42.91155986,-84.67486425,no,2070,unpaved,public,,https://www.airnav.com/airport/3F5,airport,faa,no
3F6,TX,DAN E RICHARDS MUNI,PADUCAH,COTTLE,34.02763305,-100.2820025,no,3186,paved,public,,https://www.airnav.com/airport/3F6,airport,faa,no
3F7,OK,JONES MEML,BRISTOW,CREEK,35.80704611,-96.42113583,no,4001,paved,public,,https://www.airnav.com/airport/3F7,airport,faa,no
3F9,TX,MINEOLA WISENER FLD,MINEOLA,WOOD,32.67667497,-95.51095811,no,3234,unpaved,public,,https://www.airnav.com/airport/3F9,airport,faa,no
3FK,IN,FRANKLIN FLYING FLD,FRANKLIN,JOHNSON,39.42643888,-86.05832194,no,2400,paved,public,,https://www.airnav.com/airport/3FK,airport,faa,no
3FU,SD,FAULKTON MUNI,FAULKTON,FAULK,45.03067361,-99.11287222,no,3249,paved,public,,https://www.airnav.com/airport/3FU,airport,faa,no
3G2,MN,GRYGLA MUNI - MEL WILKENS FLD,GRYGLA,MARSHALL,48.29408333,-95.62597222,no,3437,unpaved,public,,https://www.airnav.com/airport/3G2,airport,faa,no
3G3,OH,WADSWORTH MUNI,WADSWORTH,MEDINA,41.00306111,-81.75652194,no,3530,paved,public,,https://www.airnav.com/airport/3G3,airport,faa,no
3G4,OH,ASHLAND COUNTY,ASHLAND,ASHLAND,40.90297222,-82.25563888,no,3501,paved,public,,https://www.airnav.com/airport/3G4,airport,faa,no
3G6,OH,TRI-CITY,SEBRING,MAHONING,40.906,-81.00002777,no,2768,paved,public,,https://www.airnav.com/airport/3G6,airport,faa,no
3G8,IL,GEN-AIRPARK,GENESEO,HENRY,41.43977777,-90.11005555,no,2568,unpaved,public,,https://www.airnav.com/airport/3G8,airport,faa,no
3G9,PA,BUTLER FARM SHOW,BUTLER,BUTLER,40.85256444,-79.97477972,no,2580,paved,public,,https://www.airnav.com/airport/3G9,airport,faa,no
3GM,MI,GRAND HAVEN MEML AIRPARK,GRAND HAVEN,OTTAWA,43.03405555,-86.19816666,no,3752,paved,public,,https://www.airnav.com/airport/3GM,airport,faa,no
3GV,MO,EAST KANSAS CITY,GRAIN VALLEY,JACKSON,39.01464119,-94.21485844,no,4507,paved,public,,https://www.airnav.com/airport/3GV,airport,faa,no
3H4,ND,HILLSBORO MUNI,HILLSBORO,TRAILL,47.35940777,-97.06041638,no,3301,paved,public,,https://www.airnav.com/airport/3H4,airport,faa,no
3HO,IN,HOBART SKY RANCH,HOBART,LAKE,41.5559,-87.26392222,no,3125,paved,public,,https://www.airnav.com/airport/3HO,airport,faa,no
3I2,WV,MASON COUNTY,POINT PLEASANT,MASON,38.91463472,-82.09857888,no,4000,paved,public,7037244288,https://www.airnav.com/airport/3I2,airport,faa,no
3I3,IN,SKY KING,TERRE HAUTE,VIGO,39.54778666,-87.3773525,no,3557,paved,public,,https://www.airnav.com/airport/3I3,airport,faa,no
3I4,WV,RICHWOOD MUNI,RICHWOOD,NICHOLAS,38.25838888,-80.65133333,no,3360,paved,public,7037244288,https://www.airnav.com/airport/3I4,airport,faa,no
3I7,OH,DAYTON/PHILLIPSBURG,DAYTON,MONTGOMERY,39.91327777,-84.4004125,no,3000,paved,public,,https://www.airnav.com/airport/3I7,airport,faa,no
3J0,SC,HAMPTON COUNTY,HAMPTON,HAMPTON,32.86651111,-81.08097027,no,3601,paved,public,,https://www.airnav.com/airport/3J0,airport,faa,no
3J1,SC,RIDGELAND-CLAUDE DEAN,RIDGELAND,JASPER,32.49685055,-80.99314888,no,4200,paved,public,,https://www.airnav.com/airport/3J1,airport,faa,no
3J6,GA,DAVIS FLD,FOLKSTON,CHARLTON,30.79636111,-82.02816666,no,2500,paved,public,,https://www.airnav.com/airport/3J6,airport,faa,no
3JA,KS,YATES CENTER MUNI,YATES CENTER,WOODSON,37.85474205,-95.74789102,no,3000,unpaved,public,,https://www.airnav.com/airport/3JA,airport,faa,no
3JC,KS,FREEMAN FLD,JUNCTION CITY,GEARY,39.04333333,-96.84327777,no,3498,paved,public,,https://www.airnav.com/airport/3JC,airport,faa,no
3K3,KS,SYRACUSE-HAMILTON COUNTY MUNI,SYRACUSE,HAMILTON,37.99858305,-101.74760777,no,4600,paved,public,,https://www.airnav.com/airport/3K3,airport,faa,no
3K4,KS,BORTH FLD,MEADE,MEADE,37.307608,-100.47631447,no,2282,unpaved,public,,https://www.airnav.com/airport/3K4,airport,faa,no
3K7,KS,MARK HOARD MEML,LEOTI,WICHITA,38.45752638,-101.35086472,no,5100,paved,public,,https://www.airnav.com/airport/3K7,airport,faa,no
3K8,KS,COMANCHE COUNTY,COLDWATER,COMANCHE,37.22286111,-99.33202777,no,4500,paved,public,,https://www.airnav.com/airport/3K8,airport,faa,no
3KK,IL,KANKAKEE,KANKAKEE,KANKAKEE,41.10003222,-87.91671,no,2644,unpaved,public,,https://www.airnav.com/airport/3KK,airport,faa,no
3KS,KS,HF STRIP,FOWLER,MEADE,37.4360845,-100.272131,no,2585,unpaved,public,,https://www.airnav.com/airport/3KS,airport,faa,no
3L2,NV,SKY RANCH,SANDY VALLEY,CLARK,35.79294444,-115.62641666,no,3340,paved,public,,https://www.airnav.com/airport/3L2,airport,faa,no
3L7,MI,MILWRICK FLYING M,LINCOLN,ALCONA,44.73834555,-83.37969222,no,2200,unpaved,public,,https://www.airnav.com/airport/3L7,airport,faa,no
3LF,IL,LITCHFIELD MUNI,LITCHFIELD,MONTGOMERY,39.1625,-89.67463888,no,4002,paved,public,,https://www.airnav.com/airport/3LF,airport,faa,no
3M0,AR,GASTONS,LAKEVIEW,BAXTER,36.34905555,-92.55580555,no,3200,unpaved,public,,https://www.airnav.com/airport/3M0,airport,faa,no
3M5,AL,MOONTOWN,HUNTSVILLE,MADISON,34.74736111,-86.46097222,no,2180,unpaved,public,,https://www.airnav.com/airport/3M5,airport,faa,no
3M7,TN,LAFAYETTE MUNI,LAFAYETTE,MACON,36.52002777,-86.05805555,no,5200,paved,public,,https://www.airnav.com/airport/3M7,airport,faa,no
3M8,AL,NORTH PICKENS,REFORM,PICKENS,33.38675277,-88.00657916,no,5144,paved,public,,https://www.airnav.com/airport/3M8,airport,faa,no
3M9,AR,WARREN MUNI/JOHN B FRAZER JR FLD,WARREN,BRADLEY,33.56044333,-92.08538861,no,3829,paved,public,,https://www.airnav.com/airport/3M9,airport,faa,no
3MY,IL,MOUNT HAWLEY AUXILIARY,PEORIA,PEORIA,40.79580555,-89.61347222,no,4001,paved,public,,https://www.airnav.com/airport/3MY,airport,faa,no
3N6,NJ,OLD BRIDGE,OLD BRIDGE,MIDDLESEX,40.32988666,-74.34678694,no,3594,paved,public,,https://www.airnav.com/airport/3N6,airport,faa,no
3N8,MN,MAHNOMEN COUNTY,MAHNOMEN,MAHNOMEN,47.26050516,-95.92808683,no,3400,paved,public,,https://www.airnav.com/airport/3N8,airport,faa,no
3NP,MI,NAPOLEON,NAPOLEON,JACKSON,42.1710038,-84.25930872,no,2740,unpaved,public,,https://www.airnav.com/airport/3NP,airport,faa,no
3O1,CA,GUSTINE,GUSTINE,MERCED,37.26055555,-120.96425,no,3207,paved,public,,https://www.airnav.com/airport/3O1,airport,faa,no
3O3,OK,PURCELL MUNI - STEVEN E SHEPHARD FLD,PURCELL,MC CLAIN,34.98334972,-97.38263833,no,3003,paved,public,,https://www.airnav.com/airport/3O3,airport,faa,no
3O4,OK,SAYRE MUNI,SAYRE,BECKHAM,35.16770916,-99.65780611,no,4276,paved,public,,https://www.airnav.com/airport/3O4,airport,faa,no
3O5,OK,WALTERS MUNI,WALTERS,COTTON,34.37258444,-98.40588583,no,2900,paved,public,,https://www.airnav.com/airport/3O5,airport,faa,no
3O8,CA,HARRIS RANCH,COALINGA,FRESNO,36.24811111,-120.23847222,no,2820,paved,public,,https://www.airnav.com/airport/3O8,airport,faa,no
3O9,OK,GRAND LAKE RGNL,AFTON,DELAWARE,36.5775775,-94.86190027,no,3925,paved,public,,https://www.airnav.com/airport/3O9,airport,faa,no
3OK,OK,BIGGS AIRPORT,WELLSTON,LINCOLN,35.6610395,-97.002327,no,3835,unpaved,public,,https://www.airnav.com/airport/3OK,airport,faa,no
3P3,ND,MOTT MUNI,MOTT,HETTINGER,46.35916194,-102.32824416,no,4001,paved,public,,https://www.airnav.com/airport/3P3,airport,faa,no
3Q0,NV,MINA,MINA,MINERAL,38.37986111,-118.09675,no,4600,unpaved,public,,https://www.airnav.com/airport/3Q0,airport,faa,no
3R2,LA,LE GROS MEML,CROWLEY,ACADIA,30.16177777,-92.48397222,no,4304,paved,public,,https://www.airnav.com/airport/3R2,airport,faa,no
3R4,LA,HART,MANY,SABINE,31.54424722,-93.48380555,no,4402,paved,public,,https://www.airnav.com/airport/3R4,airport,faa,no
3R7,LA,JENNINGS,JENNINGS,JEFFERSON DAVIS,30.24269902,-92.67349927,no,5002,paved,public,,https://www.airnav.com/airport/3R7,airport,faa,no
3R8,IN,HONAKER FLD,SCOTTSBURG,SCOTT,38.6577,-85.79058472,no,2750,unpaved,public,,https://www.airnav.com/airport/3R8,airport,faa,no
3R9,TX,LAKEWAY AIRPARK,LAKEWAY,TRAVIS,30.35749111,-97.99446777,no,3930,paved,public,,https://www.airnav.com/airport/3R9,airport,faa,no
3RC,MI,ROSCOMMON CONSERVATION,ROSCOMMON,ROSCOMMON,44.47369627,-84.56367416,no,3552,paved,public,,https://www.airnav.com/airport/3RC,airport,faa,no
3S4,OR,ILLINOIS VALLEY,CAVE JUNCTION,JOSEPHINE,42.1036,-123.68241666,no,4807,paved,public,,https://www.airnav.com/airport/3S4,airport,faa,no
3S5,MI,SCHIFFER ACRES,ST JOHNS,CLINTON,43.03619444,-84.43418055,no,2777,unpaved,public,,https://www.airnav.com/airport/3S5,airport,faa,no
3S6,OR,TOKETEE STATE,CLEARWATER,DOUGLAS,43.22344444,-122.42116666,no,5350,unpaved,public,,https://www.airnav.com/airport/3S6,airport,faa,no
3S7,OR,NEHALEM BAY STATE,MANZANITA,TILLAMOOK,45.69813888,-123.92963888,no,2350,paved,public,,https://www.airnav.com/airport/3S7,airport,faa,no
3S8,OR,GRANTS PASS,GRANTS PASS,JOSEPHINE,42.51012083,-123.38799,no,4001,paved,public,,https://www.airnav.com/airport/3S8,airport,faa,no
3S9,OR,CONDON STATE PAULING FLD,CONDON,GILLIAM,45.24656666,-120.16645,no,3500,paved,public,,https://www.airnav.com/airport/3S9,airport,faa,no
3T0,TX,CEDAR MILLS,GORDONVILLE,GRAYSON,33.83934608,-96.81006897,no,3000,unpaved,public,,https://www.airnav.com/airport/3T0,airport,faa,no
3T2,TX,WOLFE AIR PARK,MANVEL,BRAZORIA,29.47908333,-95.32655555,no,2910,unpaved,public,,https://www.airnav.com/airport/3T2,airport,faa,no
3T3,WI,BOYCEVILLE MUNI,BOYCEVILLE,DUNN,45.04395325,-92.02132816,no,3299,paved,public,,https://www.airnav.com/airport/3T3,airport,faa,no
3T4,AK,TETLIN,TETLIN,SOUTHEAST FAIRBANKS,63.12469444,-142.51855555,no,3300,unpaved,public,9077782219,https://www.airnav.com/airport/3T4,airport,faa,no
3T5,TX,FAYETTE RGNL AIR CENTER,LA GRANGE,FAYETTE,29.90797222,-96.95,no,5000,paved,public,,https://www.airnav.com/airport/3T5,airport,faa,no
3T6,TX,CLARK,JUSTIN,DENTON,33.13361111,-97.29702777,no,1800,paved,public,,https://www.airnav.com/airport/3T6,airport,faa,no
3T7,OH,MIDDLE BASS ISLAND,MIDDLE BASS ISLAND,OTTAWA,41.68838888,-82.80816666,no,1852,paved,public,,https://www.airnav.com/airport/3T7,airport,faa,no
3T8,TX,WILDCAT CANYON,CHINA SPRING,MC LENNAN,31.67855555,-97.36255555,no,2450,unpaved,public,,https://www.airnav.com/airport/3T8,airport,faa,no
3T9,TX,BIG BEND RANCH STATE PARK,PRESIDIO,PRESIDIO,29.47108333,-103.93641666,no,5500,paved,public,,https://www.airnav.com/airport/3T9,airport,faa,no
3TA,KS,STAFFORD MUNI,STAFFORD,STAFFORD,37.95834833,-98.65036194,no,2560,unpaved,public,,https://www.airnav.com/airport/3TA,airport,faa,no
3TE,MI,AL MEYERS,TECUMSEH,LENAWEE,42.02511083,-83.93929694,no,2649,paved,public,,https://www.airnav.com/airport/3TE,airport,faa,no
3TR,MI,JERRY TYLER MEML,NILES,BERRIEN,41.83588888,-86.22516666,no,4100,paved,public,,https://www.airnav.com/airport/3TR,airport,faa,no
3TX,TX,AKROVILLE,SLIDELL,DENTON,33.39285063,-97.35384722,no,3001,unpaved,public,,https://www.airnav.com/airport/3TX,airport,faa,no
3U0,ID,MURPHY HOT SPRINGS,THREE CREEK,OWYHEE,42.02355555,-115.33544444,no,5250,unpaved,public,,https://www.airnav.com/airport/3U0,airport,faa,no
3U1,ID,WARREN /USFS/,WARREN,IDAHO,45.26811111,-115.68361111,no,2765,unpaved,public,,https://www.airnav.com/airport/3U1,airport,faa,no
3U2,ID,JOHNSON CREEK,YELLOW PINE,VALLEY,44.91172222,-115.48552777,no,3400,unpaved,public,,https://www.airnav.com/airport/3U2,airport,faa,no
3U3,MT,BOWMAN FLD,ANACONDA,DEER LODGE,46.1534145,-112.86773455,no,6010,paved,public,,https://www.airnav.com/airport/3U3,airport,faa,no
3U4,MT,ST LABRE MISSION,ASHLAND,ROSEBUD,45.60655555,-106.27425,no,3830,unpaved,public,,https://www.airnav.com/airport/3U4,airport,faa,no
3U5,MT,AUGUSTA,AUGUSTA,LEWIS AND CLARK,47.46341666,-112.38011111,no,3650,unpaved,public,,https://www.airnav.com/airport/3U5,airport,faa,no
3U7,MT,BENCHMARK,AUGUSTA,LEWIS AND CLARK,47.48202777,-112.87230555,no,6000,paved,public,,https://www.airnav.com/airport/3U7,airport,faa,no
3U8,MT,BIG SANDY,BIG SANDY,CHOUTEAU,48.16343586,-110.11428386,no,3570,paved,public,,https://www.airnav.com/airport/3U8,airport,faa,no
3U9,MT,BOULDER,BOULDER,JEFFERSON,46.21166666,-112.10761111,no,3675,unpaved,public,,https://www.airnav.com/airport/3U9,airport,faa,no
3VS,MO,ROY OTTEN MEML AIRFIELD,VERSAILLES,MORGAN,38.42827222,-92.87526388,no,2805,paved,public,,https://www.airnav.com/airport/3VS,airport,faa,no
3W2,OH,PUT IN BAY,PUT IN BAY,OTTAWA,41.63666666,-82.82833333,no,2870,paved,public,,https://www.airnav.com/airport/3W2,airport,faa,no
3W3,MD,KENTMORR AIRPARK,STEVENSVILLE,QUEEN ANNES,38.91811111,-76.35883333,no,2400,unpaved,public,,https://www.airnav.com/airport/3W3,airport,faa,no
3W5,WA,MEARS FLD,CONCRETE,SKAGIT,48.52983833,-121.75824888,no,2609,paved,public,,https://www.airnav.com/airport/3W5,airport,faa,no
3W6,NC,BLADENBORO,BLADENBORO,BLADEN,34.54286111,-78.77816666,no,2850,unpaved,public,,https://www.airnav.com/airport/3W6,airport,faa,no
3W7,WA,GRAND COULEE DAM,ELECTRIC CITY,GRANT,47.92205555,-119.083,no,4203,paved,public,,https://www.airnav.com/airport/3W7,airport,faa,no
3W8,SD,EUREKA MUNI,EUREKA,MC PHERSON,45.79999072,-99.64272,no,3100,paved,public,,https://www.airnav.com/airport/3W8,airport,faa,no
3W9,OH,MIDDLE BASS-EAST POINT,MIDDLE BASS ISLAND,OTTAWA,41.69444444,-82.79655555,no,2085,unpaved,public,,https://www.airnav.com/airport/3W9,airport,faa,no
3X5,OH,NORTH BASS ISLAND,NORTH BASS ISLAND,OTTAWA,41.718,-82.82111111,no,1804,paved,public,,https://www.airnav.com/airport/3X5,airport,faa,no
3Y2,IA,GEORGE L SCOTT MUNI,WEST UNION,FAYETTE,42.98522222,-91.79063888,no,4149,paved,public,,https://www.airnav.com/airport/3Y2,airport,faa,no
3Y3,IA,WINTERSET MUNI,WINTERSET,MADISON,41.36280555,-94.02119444,no,3002,paved,public,,https://www.airnav.com/airport/3Y3,airport,faa,no
3Y4,IA,WOODBINE MUNI,WOODBINE,HARRISON,41.73609944,-95.68361722,no,2045,unpaved,public,,https://www.airnav.com/airport/3Y4,airport,faa,no
3Y7,SD,ISABEL MUNI,ISABEL,DEWEY,45.38971111,-101.43757222,no,3009,unpaved,public,,https://www.airnav.com/airport/3Y7,airport,faa,no
3Z1,AK,FEATHER RIVER,FEATHER RIVER,NOME,64.83172722,-166.13152222,no,1190,unpaved,public,4432291,https://www.airnav.com/airport/3Z1,airport,faa,no
40C,MI,WATERVLIET MUNI,WATERVLIET,BERRIEN,42.20072172,-86.24936555,no,2600,unpaved,public,,https://www.airnav.com/airport/40C,airport,faa,no
40D,WI,THREE LAKES MUNI,THREE LAKES,ONEIDA,45.79001805,-89.12128888,no,3400,unpaved,public,,https://www.airnav.com/airport/40D,airport,faa,no
40G,AZ,VALLE,GRAND CANYON,COCONINO,35.65056527,-112.14809194,no,4199,paved,public,,https://www.airnav.com/airport/40G,airport,faa,no
40I,OH,RED STEWART AIRFIELD,WAYNESVILLE,WARREN,39.50533777,-84.12187916,no,3142,unpaved,public,,https://www.airnav.com/airport/40I,airport,faa,no
40U,UT,MANILA,MANILA,DAGGETT,40.98639444,-109.67852694,no,5305,paved,public,,https://www.airnav.com/airport/40U,airport,faa,no
41C,MI,CALKINS FLD,WAYLAND,ALLEGAN,42.69166527,-85.64720833,no,1800,unpaved,public,,https://www.airnav.com/airport/41C,airport,faa,no
41F,TX,FLOYDADA MUNI,FLOYDADA,FLOYD,34.00152777,-101.33025,no,4600,paved,public,,https://www.airnav.com/airport/41F,airport,faa,no
41G,MI,UNIVERSITY AIRPARK,BATH,CLINTON,42.84099861,-84.47904722,no,1994,unpaved,public,,https://www.airnav.com/airport/41G,airport,faa,no
41N,OH,BRACEVILLE,NEWTON FALLS,TRUMBULL,41.2111675,-80.96925722,no,3000,paved,public,,https://www.airnav.com/airport/41N,airport,faa,no
41U,UT,SANPETE COUNTY RGNL,MANTI,SANPETE,39.33141666,-111.61261111,no,5021,paved,public,,https://www.airnav.com/airport/41U,airport,faa,no
42A,AR,MELBOURNE MUNI/JOHN E MILLER FLD,MELBOURNE,IZARD,36.07098027,-91.83013555,no,4003,paved,public,,https://www.airnav.com/airport/42A,airport,faa,no
42B,CT,GOODSPEED,EAST HADDAM,MIDDLESEX,41.44565444,-72.4556425,no,4500,water,public,,https://www.airnav.com/airport/42B,airport,faa,no
42C,MI,WHITE CLOUD,WHITE CLOUD,NEWAYGO,43.55984722,-85.77415277,no,2916,paved,public,,https://www.airnav.com/airport/42C,airport,faa,no
42I,OH,PARR,ZANESVILLE,MUSKINGUM,40.00729166,-82.01347916,no,3100,paved,public,,https://www.airnav.com/airport/42I,airport,faa,no
42J,FL,KEYSTONE HEIGHTS,KEYSTONE HEIGHTS,CLAY,29.84474138,-82.04753888,no,5046,paved,public,,https://www.airnav.com/airport/42J,airport,faa,no
42M,MO,THAYER MEML,THAYER,OREGON,36.52228444,-91.57198694,no,4200,paved,public,,https://www.airnav.com/airport/42M,airport,faa,no
42U,UT,MORGAN COUNTY,MORGAN,MORGAN,41.14867555,-111.76714861,no,3904,paved,public,,https://www.airnav.com/airport/42U,airport,faa,no
43A,NC,MONTGOMERY COUNTY,STAR,MONTGOMERY,35.38464972,-79.79026638,no,4002,paved,public,,https://www.airnav.com/airport/43A,airport,faa,no
43B,ME,DEBLOIS FLIGHT STRIP,DEBLOIS,WASHINGTON,44.726875,-67.99136111,no,4500,paved,public,,https://www.airnav.com/airport/43B,airport,faa,no
43D,WA,ODESSA MUNI,ODESSA,LINCOLN,47.34758333,-118.67722222,no,3124,paved,public,,https://www.airnav.com/airport/43D,airport,faa,no
