id,state,name,city,county,latitude,longitude,type,sources,corroborated
00C,CO,ANIMAS AIR PARK,DURANGO,LA PLATA,37.20317833,-107.86919527,airport,faa,no
00F,MT,BROADUS,BROADUS,POWDER RIVER,45.47047222,-105.45713888,airport,faa,no
00M,MS,THIGPEN FLD,BAY SPRINGS,JASPER,31.95375,-89.23533333,airport,faa,no
00N,NJ,BUCKS,BRIDGETON,CUMBERLAND,39.47373919,-75.18456752,airport,faa,no
00R,TX,LIVINGSTON MUNI,LIVINGSTON,POLK,30.68586111,-95.01791666,airport,faa,no
00S,OR,MC KENZIE BRIDGE STATE,MC KENZIE BRIDGE,LANE,44.18155555,-122.08555555,airport,faa,no
00U,MT,BIG HORN COUNTY,HARDIN,BIG HORN,45.74438888,-107.66044444,airport,faa,no
00W,WA,LOWER GRANITE STATE,COLFAX,WHITMAN,46.67275,-117.44166666,airport,faa,no
01A,AK,PURKEYPILE,PURKEYPILE,KUSKOKWIM,62.94075555,-152.26960972,airport,faa,no
01G,NY,PERRY-WARSAW,PERRY,WYOMING,42.74134861,-78.05214805,airport,faa,no
01J,FL,HILLIARD AIRPARK,HILLIARD,NASSAU,30.68596666,-81.90634305,airport,faa,no
01K,KS,CALDWELL MUNI,CALDWELL,SUMNER,37.03661111,-97.58555555,airport,faa,no
01M,MS,TISHOMINGO COUNTY,BELMONT,TISHOMINGO,34.49179138,-88.2012025,airport,faa,no
01U,NV,DUCKWATER,DUCKWATER,NYE,38.85325,-115.63466666,airport,faa,no
02A,AL,CHILTON COUNTY,CLANTON,CHILTON,32.85048447,-86.61143247,airport,faa,no
02C,WI,CAPITOL DRIVE,BROOKFIELD,WAUKESHA,43.08964136,-88.17944525,airport,faa,no
02G,OH,COLUMBIANA COUNTY,EAST LIVERPOOL,COLUMBIANA,40.67330555,-80.64141666,airport,faa,no
02T,MT,WISE RIVER,WISE RIVER,BEAVERHEAD,45.77002777,-112.98047222,airport,faa,no
03B,MO,MANSFIELD MUNI,MANSFIELD,WRIGHT,37.12677777,-92.62161111,airport,faa,no
03D,MO,MEMPHIS MEML,MEMPHIS,SCOTLAND,40.44725,-92.22694444,airport,faa,no
03S,OR,SANDY RIVER,SANDY,CLACKAMAS,45.40161111,-122.22869444,airport,faa,no
04A,AL,FRANK SIKES,LUVERNE,CRENSHAW,31.73638694,-86.26245463,airport,faa,no
04G,OH,LANSDOWNE,YOUNGSTOWN,MAHONING,41.13047222,-80.61958333,airport,faa,no
04M,MS,CALHOUN COUNTY,PITTSBORO,CALHOUN,33.93008333,-89.34327777,airport,faa,no
04V,CO,SAGUACHE MUNI,SAGUACHE,SAGUACHE,38.09939444,-106.17432777,airport,faa,no
04W,MN,FIELD OF DREAMS,HINCKLEY,PINE,46.02286811,-92.89517441,airport,faa,no
04Y,MN,HAWLEY MUNI,HAWLEY,CLAY,46.88377777,-96.35061111,airport,faa,no
05C,IN,GRIFFITH-MERRILLVILLE,GRIFFITH,LAKE,41.519841,-87.39950797,airport,faa,no
05D,ND,NEW TOWN MUNI,NEW TOWN,MOUNTRAIL,47.96812777,-102.47856138,airport,faa,no
05K,AK,WILDER RUNWAY,PORT ALSWORTH,LAKE AND PENINSULA,60.19848083,-154.32304916,airport,faa,no
05N,NC,SOUTH OAKS AERODROME,WINTERVILLE,PITT,35.48218472,-77.3557743,airport,faa,no
05S,OR,VERNONIA MUNI,VERNONIA,COLUMBIA,45.85210625,-123.2428693,airport,faa,no
05U,NV,EUREKA,EUREKA,EUREKA,39.60375,-116.00361111,airport,faa,no
05V,CO,BLANCA,BLANCA,COSTILLA,37.41111916,-105.55168,airport,faa,no
05Y,MN,HENNING MUNI,HENNING,OTTER TAIL,46.30398888,-95.44225833,airport,faa,no
06A,AL,MOTON FLD MUNI,TUSKEGEE,MACON,32.46047222,-85.68002777,airport,faa,no
06C,IL,SCHAUMBURG RGNL,CHICAGO/SCHAUMBURG,DU PAGE,41.98934083,-88.10124277,airport,faa,no
06D,ND,ROLLA MUNI/LEONARD KRECH FLD,ROLLA,ROLETTE,48.88441722,-99.62092666,airport,faa,no
06M,MS,EUPORA,EUPORA,WEBSTER,33.53483333,-89.31311111,airport,faa,no
06N,NY,RANDALL,MIDDLETOWN,ORANGE,41.43191194,-74.39156083,airport,faa,no
06U,NV,JACKPOT/HAYDEN FLD,JACKPOT,ELKO,41.97583083,-114.65801555,airport,faa,no
06Y,MN,HERMAN MUNI,HERMAN,GRANT,45.82996055,-96.16061444,airport,faa,no
07A,AL,FRANKLIN FLD,UNION SPRINGS,BULLOCK,32.1675925,-85.81119666,airport,faa,no
07F,TX,GLADEWATER MUNI,GLADEWATER,GREGG,32.52883333,-94.97175,airport,faa,no
07K,NE,CENTRAL CITY MUNI/LARRY REINEKE FLD,CENTRAL CITY,MERRICK,41.1115613,-98.05133561,airport,faa,no
07N,PA,BERMUDIAN VALLEY AIRPARK,KRALLTOWN,YORK,40.01676166,-77.00386666,airport,faa,no
07R,TX,BISHOP-WINDHAM,BISHOP,NUECES,27.61016666,-97.75252777,airport,faa,no
07S,KS,BEAUMONT HOTEL,BEAUMONT,BUTLER,37.65930416,-96.52769166,airport,faa,no
07V,CO,CUCHARA VALLEY AT LA VETA,LA VETA,HUERFANO,37.52382444,-105.00926861,airport,faa,no
07Y,MN,HILL CITY/QUADNA MOUNTAIN,HILL CITY,AITKIN,46.955895,-93.59744288,airport,faa,no
08A,AL,WETUMPKA MUNI,WETUMPKA,ELMORE,32.52733333,-86.33102777,airport,faa,no
08B,ME,MERRYMEETING FLD,BOWDOINHAM,SAGADAHOC,44,-69.88713888,airport,faa,no
08C,MI,RIVERVIEW,JENISON,OTTAWA,42.93672263,-85.8057525,airport,faa,no
08D,ND,STANLEY MUNI,STANLEY,MOUNTRAIL,48.30138638,-102.40806027,airport,faa,no
08F,OK,CITY OF COALGATE,COALGATE,COAL,34.53175888,-96.23305388,airport,faa,no
08K,NE,HARVARD STATE,HARVARD,CLAY,40.65133333,-98.07988888,airport,faa,no
08M,MS,CARTHAGE-LEAKE COUNTY,CARTHAGE,LEAKE,32.76158333,-89.53038888,airport,faa,no
08N,PA,KELLER BROTHERS,LEBANON,LEBANON,40.29155138,-76.32874722,airport,faa,no
08R,RI,RICHMOND,WEST KINGSTON,WASHINGTON,41.4895,-71.62063888,airport,faa,no
08U,NV,STEVENS-CROSBY,NORTH FORK,ELKO,41.51575122,-115.85992069,airport,faa,no
09A,AL,BUTLER/CHOCTAW COUNTY,BUTLER,CHOCTAW,32.11930555,-88.12747222,airport,faa,no
09J,GA,JEKYLL ISLAND,JEKYLL ISLAND,GLYNN,31.07447222,-81.42777777,airport,faa,no
09K,NE,SARGENT MUNI,SARGENT,CUSTER,41.63491666,-99.34213888,airport,faa,no
09M,MS,CHARLESTON MUNI,CHARLESTON,TALLAHATCHIE,33.99136111,-90.07855555,airport,faa,no
09N,NY,AIRHAVEN,STAATSBURG,DUTCHESS,41.83263888,-73.87616666,airport,faa,no
09R,TX,TYLER COUNTY,WOODVILLE,TYLER,30.77520055,-94.4585325,airport,faa,no
09S,WA,SULLIVAN LAKE STATE,METALINE FALLS,PEND OREILLE,48.84089527,-117.28398583,airport,faa,no
09T,TX,LAZY G BAR RANCH,DECATUR,WISE,33.28132069,-97.49669333,airport,faa,no
0A3,TN,SMITHVILLE MUNI,SMITHVILLE,DE KALB,35.98544444,-85.80911111,airport,faa,no
0A4,TN,JOHNSON CITY,JOHNSON CITY,WASHINGTON,36.36371666,-82.30902611,airport,faa,no
0A7,NC,HENDERSONVILLE,HENDERSONVILLE,HENDERSON,35.30761666,-82.43317416,airport,faa,no
0A8,AL,BIBB COUNTY,CENTREVILLE,BIBB,32.93693888,-87.09054722,airport,faa,no
0A9,TN,WILLIAM B GREENE JR RGNL,ELIZABETHTON,CARTER,36.37155794,-82.17272433,airport,faa,no
0AK,AK,PILOT STATION,PILOT STATION,KUSILVAK,61.96147697,-162.94235461,airport,faa,no
0B1,ME,BETHEL RGNL,BETHEL,OXFORD,44.42516666,-70.80991666,airport,faa,no
0B2,ME,BREWER,BREWER,PENOBSCOT,44.76383333,-68.76786111,airport,faa,no
0B4,NE,HARTINGTON MUNI/BUD BECKER FLD,HARTINGTON,CEDAR,42.60308333,-97.2535,airport,faa,no
0B5,MA,TURNERS FALLS,MONTAGUE,FRANKLIN,42.59161111,-72.523,airport,faa,no
0B7,VT,WARREN-SUGARBUSH,WARREN,WASHINGTON,44.11738888,-72.827,airport,faa,no
0B8,NY,ELIZABETH FLD,FISHERS ISLAND,SUFFOLK,41.25213888,-72.03163888,airport,faa,no
0C0,IL,DACY,HARVARD,MC HENRY,42.40247222,-88.63238888,airport,faa,no
0C1,MO,TRIPLE R,DEARBORN,PLATTE,39.48775,-94.78113888,airport,faa,no
0C2,IL,HINCKLEY,HINCKLEY,DE KALB,41.77086277,-88.70341444,airport,faa,no
0C4,NE,PENDER MUNI,PENDER,THURSTON,42.11341811,-96.72781338,airport,faa,no
0C5,MI,CANADIAN LAKES,MECOSTA,MECOSTA,43.57701111,-85.284,airport,faa,no
0C8,IL,CUSHING FLD LTD,NEWARK,LA SALLE,41.519475,-88.60562888,airport,faa,no
0D7,OH,ADA,ADA,HARDIN,40.79060805,-83.82910388,airport,faa,no
0D8,SD,GETTYSBURG MUNI,GETTYSBURG,POTTER,44.98661111,-99.95288888,airport,faa,no
0E0,NM,MORIARTY MUNI,MORIARTY,TORRANCE,34.97816666,-106.00002777,airport,faa,no
0E8,NM,CROWNPOINT,CROWNPOINT,MC KINLEY,35.71765888,-108.20159611,airport,faa,no
0E9,IA,CORYDON,CORYDON,WAYNE,40.75622777,-93.24033611,airport,faa,no
0F2,TX,BOWIE MUNI,BOWIE,MONTAGUE,33.60166666,-97.77555555,airport,faa,no
0F3,IA,SPIRIT LAKE MUNI,SPIRIT LAKE,DICKINSON,43.38742083,-95.13946805,airport,faa,no
0F4,NE,LOUP CITY MUNI,LOUP CITY,SHERMAN,41.28636111,-98.99002777,airport,faa,no
0F7,OK,FOUNTAINHEAD LODGE AIRPARK,EUFAULA,MC INTOSH,35.38866666,-95.60027777,airport,faa,no
0F9,OK,TISHOMINGO AIRPARK,TISHOMINGO,JOHNSTON,34.1985,-96.6745,airport,faa,no
0G3,NE,TECUMSEH MUNI,TECUMSEH,JOHNSON,40.40094444,-96.17044444,airport,faa,no
0G6,OH,WILLIAMS COUNTY,BRYAN,WILLIAMS,41.46730555,-84.50677777,airport,faa,no
0G7,NY,FINGER LAKES RGNL,SENECA FALLS,SENECA,42.88355555,-76.78116666,airport,faa,no
0H1,KS,TREGO WAKEENEY,WAKEENEY,TREGO,39.00652777,-99.89294444,airport,faa,no
0H7,MO,KAHOKA MUNI,KAHOKA,CLARK,40.42172222,-91.70666666,airport,faa,no
0I2,IN,BRAZIL CLAY COUNTY,BRAZIL,CLAY,39.47673555,-87.09970916,airport,faa,no
0I8,KY,CYNTHIANA-HARRISON COUNTY,CYNTHIANA,HARRISON,38.36616388,-84.28334444,airport,faa,no
0ID,ID,W E RANCH,THATCHER,CARIBOU,42.44818625,-111.77754305,airport,faa,no
0J0,AL,ABBEVILLE MUNI,ABBEVILLE,HENRY,31.60172027,-85.23854472,airport,faa,no
0J4,AL,FLORALA MUNI,FLORALA,COVINGTON,31.04247361,-86.31156111,airport,faa,no
0J8,FL,FLYING TEN,ARCHER,ALACHUA,29.61942916,-82.50866805,airport,faa,no
0K6,OK,DOBIE'S,INOLA,ROGERS,36.17934722,-95.580275,airport,faa,no
0K7,IA,HUMBOLDT MUNI,HUMBOLDT,HUMBOLDT,42.73486111,-94.24547222,airport,faa,no
0L4,NV,LIDA JUNCTION,GOLDFIELD,ESMERALDA,37.49188888,-117.18841666,airport,faa,no
0L7,NV,JEAN,JEAN,CLARK,35.76826436,-115.32962197,airport,faa,no
0L9,NV,ECHO BAY,OVERTON,CLARK,36.31103786,-114.46389411,airport,faa,no
0M0,AR,BILLY FREE MUNI,DUMAS,DESHA,33.88452777,-91.53427777,airport,faa,no
0M2,TN,REELFOOT LAKE,TIPTONVILLE,LAKE,36.47533333,-89.34630555,airport,faa,no
0M3,TN,PAUL BRIDGES FLD,HOHENWALD,LEWIS,35.54597416,-87.59732444,airport,faa,no
0M4,TN,BENTON COUNTY,CAMDEN,BENTON,36.00954166,-88.12472777,airport,faa,no
0M5,TN,HUMPHREYS COUNTY,WAVERLY,HUMPHREYS,36.11661111,-87.73816666,airport,faa,no
0M8,LA,BYERLEY,LAKE PROVIDENCE,EAST CARROLL,32.82587916,-91.187665,airport,faa,no
0M9,LA,DELHI MUNI,DELHI,RICHLAND,32.41072222,-91.49852777,airport,faa,no
0N0,MO,ROOSTERVILLE,LIBERTY,CLAY,39.28983333,-94.44244444,airport,faa,no
0N4,DE,CHANDELLE,DOVER,KENT,39.20230555,-75.48541666,airport,faa,no
0O2,CA,BAKER,BAKER,SAN BERNARDINO,35.28627777,-116.08136111,airport,faa,no
0O4,CA,CORNING MUNI,CORNING,TEHAMA,39.94610805,-122.17111666,airport,faa,no
0O9,CA,WARD FLD,GASQUET,DEL NORTE,41.84558333,-123.98477777,airport,faa,no
0P1,KS,VAN PAK,PRAIRIE VIEW,PHILLIPS,39.83169444,-99.56844444,airport,faa,no
0P2,PA,SHOESTRING AVIATION AIRFIELD,STEWARTSTOWN,YORK,39.79625416,-76.64639305,airport,faa,no
0P8,PA,LAZY B RANCH,DOVER,YORK,40.02442361,-76.8153,airport,faa,no
0Q3,CA,SONOMA VALLEY,SCHELLVILLE/SONOMA,SONOMA,38.22394225,-122.449711,airport,faa,no
0Q4,CA,SELMA,SELMA,FRESNO,36.5810005,-119.656978,airport,faa,no
0Q5,CA,SHELTER COVE,SHELTER COVE,HUMBOLDT,40.02816666,-124.07430555,airport,faa,no
0Q9,CA,SONOMA SKYPARK,SONOMA,SONOMA,38.25747222,-122.43455555,airport,faa,no
0R0,MS,COLUMBIA/MARION COUNTY,COLUMBIA,MARION,31.29784638,-89.81148694,airport,faa,no
0R1,AL,ATMORE MUNI,ATMORE,ESCAMBIA,31.01613888,-87.44675,airport,faa,no
0R2,MO,LINCOLN MUNI,LINCOLN,BENTON,38.40233333,-93.33225,airport,faa,no
0R4,LA,CONCORDIA PARISH,VIDALIA,CONCORDIA,31.562,-91.50647222,airport,faa,no
0R5,LA,DAVID G JOYCE,WINNFIELD,WINN,31.96366222,-92.66026055,airport,faa,no
0R6,AR,HAMPTON MUNI,HAMPTON,CALHOUN,33.52261111,-92.46027777,airport,faa,no
0R7,LA,THE RED RIVER,COUSHATTA,RED RIVER,31.99027777,-93.30761111,airport,faa,no
0S0,WA,LIND,LIND,ADAMS,46.97684194,-118.58723111,airport,faa,no
0S1,MT,MEADOW CREEK USFS,MEADOW CREEK,FLATHEAD,47.84936516,-113.41741938,airport,faa,no
0S5,ID,NEZPERCE MUNI,NEZPERCE,LEWIS,46.23847327,-116.23856927,airport,faa,no
0S7,WA,DOROTHY SCOTT INTL,OROVILLE,OKANOGAN,48.95897222,-119.41197222,airport,faa,no
0S9,WA,JEFFERSON COUNTY INTL,PORT TOWNSEND,JEFFERSON,48.05380555,-122.81063888,airport,faa,no
0U0,ID,LANDMARK USFS,LANDMARK,VALLEY,44.64211111,-115.53338888,airport,faa,no
0U1,ID,WARM SPRINGS CREEK,LOWMAN,BOISE,44.14222222,-115.31405555,airport,faa,no
0U2,ID,COPPER BASIN,MACKAY,CUSTER,43.80197222,-113.83152777,airport,faa,no
0U3,ID,MAHONEY CREEK USFS,MAHONEY CREEK,VALLEY,44.74458333,-114.92138888,airport,faa,no
0U7,ID,HOLLOW TOP,CAREY,BLAINE,43.32375,-113.5905,airport,faa,no
0U8,ID,MAY,MAY,LEMHI,44.61033333,-113.89486111,airport,faa,no
0U9,ID,LEE WILLIAMS MEML,MIDVALE,WASHINGTON,44.46127777,-116.75802777,airport,faa,no
0V3,NE,PIONEER VILLAGE FLD,MINDEN,KEARNEY,40.51491666,-98.94563888,airport,faa,no
0V4,VA,BROOKNEAL/CAMPBELL COUNTY,BROOKNEAL,CAMPBELL,37.14172222,-79.01638888,airport,faa,no
0V7,AZ,KAYENTA,KAYENTA,NAVAJO,36.71644444,-110.22844444,airport,faa,no
0VG,VA,LEE COUNTY,JONESVILLE,LEE,36.654085,-83.21784666,airport,faa,no
0W3,MD,HARFORD COUNTY,CHURCHVILLE,HARFORD,39.56885666,-76.2041075,airport,faa,no
0Y6,IA,LAKE MILLS MUNI,LAKE MILLS,WINNEBAGO,43.41366666,-93.51175,airport,faa,no
10C,IL,GALT FLD,GREENWOOD/WONDER LAKE,MC HENRY,42.40288888,-88.37511111,airport,faa,no
10D,MN,WINSTED MUNI,WINSTED,MC LEOD,44.95385,-94.06539027,airport,faa,no
10G,OH,HOLMES COUNTY,MILLERSBURG,HOLMES,40.53670125,-81.95594116,airport,faa,no
10U,NV,OWYHEE,OWYHEE,ELKO,41.95362833,-116.18207,airport,faa,no
10X,TX,OX RANCH,UVALDE,KINNEY,29.46148194,-100.11428916,airport,faa,no
11A,AL,CLAYTON MUNI,CLAYTON,BARBOUR,31.88332444,-85.48522472,airport,faa,no
11K,KS,SQUADRON FLD,ERIE,NEOSHO,37.46117222,-95.24194444,airport,faa,no
11N,CT,CANDLELIGHT FARMS,NEW MILFORD,LITCHFIELD,41.56916666,-73.46208333,airport,faa,no
11R,TX,BRENHAM MUNI,BRENHAM,WASHINGTON,30.2196755,-96.37440277,airport,faa,no
11S,WA,SEKIU,SEKIU,CLALLAM,48.26611638,-124.31396472,airport,faa,no
11V,CO,EASTON/VALLEY VIEW,GREELEY,WELD,40.32735694,-104.60939444,airport,faa,no
11Y,WI,FLYING FEATHERS,CHILTON,CALUMET,44.06380005,-88.19195911,airport,faa,no
12A,AR,ARKAVALLEY,GREENBRIER,FAULKNER,35.17752961,-92.33506697,airport,faa,no
12D,MN,TOWER MUNI,TOWER,ST LOUIS,47.81815555,-92.28606666,airport,faa,no
12G,OH,SHELBY COMMUNITY,SHELBY,RICHLAND,40.87286111,-82.69738888,airport,faa,no
12J,AL,BREWTON MUNI,BREWTON,ESCAMBIA,31.05071138,-87.06726666,airport,faa,no
12K,NE,SUPERIOR MUNI,SUPERIOR,NUCKOLLS,40.04619986,-98.06125544,airport,faa,no
12N,NJ,AEROFLEX/ANDOVER,ANDOVER,SUSSEX,41.00861972,-74.73803388,airport,faa,no
12S,OR,MONUMENT MUNI,MONUMENT,GRANT,44.83152777,-119.42966666,airport,faa,no
12V,WV,ONA AIRPARK,MILTON,CABELL,38.44088888,-82.20077777,airport,faa,no
12Y,MN,LE SUEUR MUNI,LE SUEUR,LE SUEUR,44.44088808,-93.91584727,airport,faa,no
13C,MI,LAKEVIEW/GRIFFITH FLD,LAKEVIEW,MONTCALM,43.45225,-85.26463888,airport,faa,no
13K,KS,LT WILLIAM M MILLIKEN,EUREKA,GREENWOOD,37.85161611,-96.29202444,airport,faa,no
13Q,NM,JEWETT MESA,APACHE CREEK,CATRON,34.00430555,-108.67977777,airport,faa,no
13W,WA,CAMANO ISLAND AIRFIELD,STANWOOD,ISLAND,48.25694444,-122.43619444,airport,faa,no
13Y,MN,LITTLEFORK MUNI/HANOVER,LITTLEFORK,KOOCHICHING,48.40827777,-93.579425,airport,faa,no
14A,NC,LAKE NORMAN AIRPARK,MOORESVILLE,IREDELL,35.61386944,-80.89943055,airport,faa,no
14G,OH,FREMONT,FREMONT,SANDUSKY,41.33308333,-83.16119444,airport,faa,no
14J,AL,CARL FOLSOM,ELBA,COFFEE,31.41004166,-86.09033611,airport,faa,no
14M,MS,HOLLANDALE MUNI,HOLLANDALE,WASHINGTON,33.18251488,-90.83049347,airport,faa,no
14N,PA,BELTZVILLE,LEHIGHTON,CARBON,40.8442875,-75.63535416,airport,faa,no
14S,WA,WESTPORT,WESTPORT,GRAYS HARBOR,46.89695083,-124.10074527,airport,faa,no
14Y,MN,TODD FLD,LONG PRAIRIE,TODD,45.89759416,-94.87362277,airport,faa,no
15A,AL,MARK REYNOLDS/NORTH MOBILE COUNTY,CREOLA,MOBILE,30.90913888,-87.99633333,airport,faa,no
15F,TX,HASKELL MUNI,HASKELL,HASKELL,33.19148686,-99.71787263,airport,faa,no
15G,OH,WELTZIEN SKYPARK,WADSWORTH,MEDINA,41.02818472,-81.79814722,airport,faa,no
15J,GA,COOK COUNTY,ADEL,COOK,31.13675777,-83.45422333,airport,faa,no
15M,MS,SEGARS FLD,IUKA,TISHOMINGO,34.77333333,-88.16608333,airport,faa,no
15N,DE,JENKINS,WYOMING,KENT,39.11733333,-75.58441666,airport,faa,no
15Z,AK,MCCARTHY,MCCARTHY,VALDEZ-CORDOVA,61.43781908,-142.902503,airport,faa,no
16A,AK,NUNAPITCHUK,NUNAPITCHUK,BETHEL,60.906,-162.44058333,airport,faa,no
16D,MN,PERHAM MUNI,PERHAM,OTTER TAIL,46.61097222,-95.60611111,airport,faa,no
16G,OH,SENECA COUNTY,TIFFIN,SENECA,41.09405555,-83.2125,airport,faa,no
16J,GA,DAWSON MUNI,DAWSON,TERRELL,31.74328805,-84.41929138,airport,faa,no
16S,OR,MYRTLE CREEK MUNI,MYRTLE CREEK,DOUGLAS,42.99726111,-123.31534722,airport,faa,no
16W,WA,LITTLE GOOSE LOCK AND DAM,STARBUCK,COLUMBIA,46.58394444,-118.00358333,airport,faa,no
16X,TX,PROPWASH,JUSTIN,DENTON,33.08061111,-97.35841666,airport,faa,no
17A,AR,TRIGGER GAP,BERRYVILLE,CARROLL,36.32825,-93.62221388,airport,faa,no
17G,OH,PORT BUCYRUS/CRAWFORD COUNTY,BUCYRUS,CRAWFORD,40.78158333,-82.97480555,airport,faa,no
17J,GA,DONALSONVILLE MUNI,DONALSONVILLE,SEMINOLE,31.00650722,-84.87763666,airport,faa,no
17K,OK,BOISE CITY,BOISE CITY,CIMARRON,36.77430555,-102.51044444,airport,faa,no
17M,MS,MAGEE MUNI,MAGEE,SIMPSON,31.862765,-89.80061444,airport,faa,no
17N,NJ,CROSS KEYS,CROSS KEYS,GLOUCESTER,39.70547583,-75.03300305,airport,faa,no
17Q,KS,HIEBERT AIRFIELD,GOESSEL,MARION,38.21538611,-97.35218472,airport,faa,no
17S,OR,CHEHALEM AIRPARK,NEWBERG,YAMHILL,45.32372777,-123.05426944,airport,faa,no
17V,CO,HAXTUN MUNI,HAXTUN,PHILLIPS,40.62444444,-102.60797222,airport,faa,no
18A,GA,FRANKLIN-HART,CANON,FRANKLIN,34.34036111,-83.13080555,airport,faa,no
18I,KY,MC CREARY COUNTY,PINE KNOT,MC CREARY,36.69538888,-84.3915,airport,faa,no
18K,KS,FOWLER,FOWLER,MEADE,37.38427777,-100.18619444,airport,faa,no
18T,NM,TATUM,TATUM,LEA,33.26080555,-103.27848611,airport,faa,no
18V,CO,PLATTE VALLEY AIRPARK,HUDSON,WELD,40.10272222,-104.70119444,airport,faa,no
18Y,MN,MILACA MUNI,MILACA,MILLE LACS,45.77246472,-93.63218444,airport,faa,no
19M,MS,C A MOORE,LEXINGTON,HOLMES,33.12546111,-90.02555694,airport,faa,no
19N,NJ,PINE VALLEY,BERLIN,CAMDEN,39.77844444,-74.94780555,airport,faa,no
19S,KS,SUBLETTE MUNI,SUBLETTE,HASKELL,37.49686111,-100.83291666,airport,faa,no
1A1,NY,GREEN ACRES,LIVINGSTON,COLUMBIA,42.14944444,-73.75047222,airport,faa,no
1A2,ND,ARTHUR,ARTHUR,CASS,47.11263611,-97.20814722,airport,faa,no
1A3,TN,MARTIN CAMPBELL FLD,COPPERHILL,POLK,35.01581611,-84.34683111,airport,faa,no
1A4,AL,LOGAN FLD,SAMSON,GENEVA,31.10370277,-86.0626,airport,faa,no
1A5,NC,MACON COUNTY,FRANKLIN,MACON,35.22231388,-83.41999472,airport,faa,no
1A6,KY,MIDDLESBORO/BELL COUNTY,MIDDLESBORO,BELL,36.61026,-83.73731527,airport,faa,no
1A7,TN,JACKSON COUNTY,GAINESBORO,JACKSON,36.39681694,-85.64132527,airport,faa,no
1A8,NV,GOLDFIELD,GOLDFIELD,ESMERALDA,37.72205861,-117.23636583,airport,faa,no
1A9,AL,PRATTVILLE/GROUBY FLD,PRATTVILLE,AUTAUGA,32.43872222,-86.51269444,airport,faa,no
1B0,ME,DEXTER RGNL,DEXTER,PENOBSCOT,45.0045075,-69.23743666,airport,faa,no
1B1,NY,COLUMBIA COUNTY,HUDSON,COLUMBIA,42.29130555,-73.71033333,airport,faa,no
1B2,MA,KATAMA AIRPARK,EDGARTOWN,DUKES,41.35845055,-70.52447055,airport,faa,no
1B5,NH,FRANCONIA,FRANCONIA,GRAFTON,44.19595036,-71.75070327,airport,faa,no
1B6,MA,HOPEDALE INDUSTRIAL PARK,HOPEDALE,WORCESTER,42.10648583,-71.51009,airport,faa,no
1B8,NY,CHAPIN FLD,CAMBRIDGE,WASHINGTON,43.05269444,-73.36313888,airport,faa,no
1B9,MA,MANSFIELD MUNI,MANSFIELD,BRISTOL,42.00087916,-71.19804111,airport,faa,no
1BT,MO,BONNE TERRE MUNI,BONNE TERRE,ST FRANCOIS,37.91898055,-90.57520277,airport,faa,no
1C1,IL,PAXTON,PAXTON,FORD,40.44897888,-88.12773805,airport,faa,no
1C3,NY,ARGYLE,ARGYLE,WASHINGTON,43.25452777,-73.47019444,airport,faa,no
1C5,IL,BOLINGBROOK'S CLOW INTL,BOLINGBROOK,WILL,41.69591666,-88.1295,airport,faa,no
1C8,IL,COTTONWOOD,ROCKFORD,WINNEBAGO,42.29168583,-89.13621833,airport,faa,no
1C9,CA,FRAZIER LAKE AIRPARK,HOLLISTER,SAN BENITO,36.95283333,-121.46263888,airport,faa,no
1D1,SD,MILBANK MUNI,MILBANK,GRANT,45.2305,-96.56608333,airport,faa,no
1D2,MI,CANTON-PLYMOUTH-METTETAL,PLYMOUTH,WAYNE,42.34780555,-83.45633333,airport,faa,no
1D3,SD,PLATTE MUNI,PLATTE,CHARLES MIX,43.40471525,-98.83049091,airport,faa,no
1D4,OH,MAYFIELD,AKRON,SUMMIT,40.99255638,-81.43177916,airport,faa,no
1D6,MN,HECTOR MUNI,HECTOR,RENVILLE,44.73110252,-94.713786,airport,faa,no
1D7,SD,THE SIGURD ANDERSON,WEBSTER,DAY,45.29311111,-97.51361111,airport,faa,no
1D8,SD,REDFIELD MUNI,REDFIELD,SPINK,44.85656722,-98.53122833,airport,faa,no
1DA,ID,BIG BAR USFS,LUCILE,IDAHO,45.53457777,-116.53091666,airport,faa,no
1DS,SC,DRY SWAMP,ORANGEBURG,ORANGEBURG,33.38426111,-80.907025,airport,faa,no
1E2,TX,TERLINGUA RANCH,ALPINE,BREWSTER,29.4515,-103.39761111,airport,faa,no
1E4,TX,PALO DURO,AMARILLO,RANDALL,35.14372222,-101.83922222,airport,faa,no
1E7,TX,BUFFALO,AMARILLO,RANDALL,35.06388888,-101.87758333,airport,faa,no
1E8,NY,DEGRASSE MOORES,DEGRASSE,ST LAWRENCE,44.38791666,-75.06633333,airport,faa,no
1F0,OK,ARDMORE DOWNTOWN EXEC,ARDMORE,CARTER,34.14697222,-97.12266666,airport,faa,no
1F2,NY,PLATEAU SKY RANCH,EDINBURG,SARATOGA,43.22555194,-74.11445019,airport,faa,no
1F4,OK,MADILL MUNI,MADILL,MARSHALL,34.14040194,-96.81203222,airport,faa,no
1F5,KS,HOXIE-SHERIDAN COUNTY,HOXIE,SHERIDAN,39.36508333,-100.43808333,airport,faa,no
1F7,TX,AIRPARK EAST,DALLAS,ROCKWALL,32.81293338,-96.35203255,airport,faa,no
1G0,OH,WOOD COUNTY,BOWLING GREEN,WOOD,41.391,-83.63013888,airport,faa,no
1G1,OH,ELYRIA,ELYRIA,LORAIN,41.33152777,-82.10025,airport,faa,no
1G3,OH,KENT STATE UNIVERSITY,KENT,SUMMIT,41.15138888,-81.41511111,airport,faa,no
1G4,AZ,GRAND CANYON WEST,PEACH SPRINGS,MOHAVE,35.98611111,-113.81691666,airport,faa,no
1G5,OH,MEDINA MUNI,MEDINA,MEDINA,41.13144444,-81.76488888,airport,faa,no
1G8,OH,EDDIE DEW MEML AIRPARK,TORONTO,JEFFERSON,40.47598888,-80.62805972,airport,faa,no
1H0,MO,CREVE COEUR,ST LOUIS,ST LOUIS,38.72733333,-90.50841666,airport,faa,no
1H1,NY,AIRLANE ENTERPRISES,CLAY,ONONDAGA,43.20588888,-76.17930555,airport,faa,no
1H2,IL,EFFINGHAM COUNTY RGNL,EFFINGHAM,EFFINGHAM,39.07044444,-88.53352777,airport,faa,no
1H3,MO,STATE TECHNICAL COLLEGE OF MISSOURI,LINN,OSAGE,38.47161111,-91.81722222,airport,faa,no
1H4,NY,GREENVILLE-RAINBOW,GREENVILLE,GREENE,42.41970277,-74.00689166,airport,faa,no
1H5,MO,WILLOW SPRINGS MEML,WILLOW SPRINGS,HOWELL,36.98961805,-91.95407638,airport,faa,no
1H6,OK,HARVEY YOUNG,TULSA,TULSA,36.13891666,-95.82505555,airport,faa,no
1H8,IL,CASEY MUNI,CASEY,CLARK,39.30250916,-88.00406194,airport,faa,no
1H9,WI,NEST OF EAGLES,SPOONER,WASHBURN,45.83561575,-91.80283775,airport,faa,no
1I1,NY,MARCY FLD,KEENE,ESSEX,44.22085555,-73.78801111,airport,faa,no
1I3,IN,SHAWNEE FLD,BLOOMFIELD,GREENE,39.04272222,-87.00275,airport,faa,no
1I5,NY,FREEHOLD,FREEHOLD,GREENE,42.364,-74.06502777,airport,faa,no
1I8,IN,CONVERSE,CONVERSE,MIAMI,40.57320277,-85.89959722,airport,faa,no
1I9,IN,DELPHI MUNI,DELPHI,CARROLL,40.54081083,-86.68146638,airport,faa,no
1J9,FL,FORT WALTON BEACH,NAVARRE,SANTA ROSA,30.40630555,-86.82919444,airport,faa,no
1K1,KS,LLOYD STEARMAN FLD,BENTON,BUTLER,37.77444444,-97.11322222,airport,faa,no
1K2,OK,LINDSAY MUNI,LINDSAY,GARVIN,34.84945138,-97.58529166,airport,faa,no
1K4,OK,DAVID JAY PERRY,GOLDSBY,MC CLAIN,35.1550675,-97.47039388,airport,faa,no
1K5,OK,WAYNOKA MUNI,WAYNOKA,WOODS,36.5713,-98.85466388,airport,faa,no
1K6,KS,ELLINWOOD MUNI,ELLINWOOD,BARTON,38.37284027,-98.59864305,airport,faa,no
1K7,KS,FREDONIA,FREDONIA,WILSON,37.58070416,-95.83715555,airport,faa,no
1K8,OK,SOUTH GRAND LAKE RGNL,KETCHUM,CRAIG,36.54636111,-95.01352777,airport,faa,no
1K9,KS,SATANTA MUNI,SATANTA,HASKELL,37.45666666,-100.98461111,airport,faa,no
1KS,KS,LINN COUNTY,PLEASANTON,LINN,38.17343333,-94.690325,airport,faa,no
1L1,NV,LINCOLN COUNTY,PANACA,LINCOLN,37.78741666,-114.41988888,airport,faa,no
1L3,NV,SEARCHLIGHT,SEARCHLIGHT,CLARK,35.44455555,-114.90936111,airport,faa,no
1L4,NV,KIDWELL,CAL NEV ARI,CLARK,35.30590433,-114.88238683,airport,faa,no
1L7,UT,ESCALANTE MUNI,ESCALANTE,GARFIELD,37.74536111,-111.57016666,airport,faa,no
1L8,UT,GENERAL DICK STOUT FLD,HURRICANE,WASHINGTON,37.14021536,-113.30607991,airport,faa,no
1L9,UT,PAROWAN,PAROWAN,IRON,37.85963888,-112.81586111,airport,faa,no
1M2,MS,BELZONI MUNI,BELZONI,HUMPHREYS,33.14518055,-90.51528472,airport,faa,no
1M4,AL,POSEY FLD,HALEYVILLE,WINSTON,34.28033333,-87.60041666,airport,faa,no
1M5,TN,DOUGLAS HUNTER FLD,PORTLAND,SUMNER,36.59286583,-86.47691111,airport,faa,no
1M6,MT,STEVENS RANCH,ASHLAND,POWDER RIVER,45.28804291,-106.14529558,airport,faa,no
1M7,KY,FULTON,FULTON,FULTON,36.52563888,-88.91783333,airport,faa,no
1M8,MA,MYRICKS,BERKLEY,BRISTOL,41.83905555,-71.02647222,airport,faa,no
1M9,KY,LAKE BARKLEY STATE PARK,CADIZ,TRIGG,36.81780138,-87.90751666,airport,faa,no
1MO,MO,MOUNTAIN GROVE MEML,MOUNTAIN GROVE,WRIGHT,37.12086141,-92.31010666,airport,faa,no
1N1,NM,SANDIA AIRPARK ESTATES EAST,EDGEWOOD,SANTA FE,35.09461111,-106.16455555,airport,faa,no
1N3,PA,ALBERT,PHILIPSBURG,CLEARFIELD,40.9716875,-78.24297916,airport,faa,no
1N5,MD,BENNETT,SALISBURY,WICOMICO,38.41276933,-75.61693077,airport,faa,no
1N7,NJ,BLAIRSTOWN,BLAIRSTOWN,WARREN,40.97113313,-74.99750405,airport,faa,no
1O1,OK,GRANDFIELD MUNI,GRANDFIELD,TILLMAN,34.23758944,-98.74200916,airport,faa,no
1O2,CA,LAMPSON FLD,LAKEPORT,LAKE,38.99061111,-122.90072222,airport,faa,no
1O3,CA,LODI,LODI,SAN JOAQUIN,38.20244166,-121.26914166,airport,faa,no
1O4,OK,THOMAS MUNI,THOMAS,CUSTER,35.73366666,-98.73052777,airport,faa,no
1O5,CA,MONTAGUE-YREKA ROHRER FLD,MONTAGUE,SISKIYOU,41.72998333,-122.54448055,airport,faa,no
1O6,CA,DUNSMUIR MUNI-MOTT,DUNSMUIR,SISKIYOU,41.26291944,-122.2720375,airport,faa,no
1O8,OK,TIPTON MUNI,TIPTON,TILLMAN,34.458625,-99.17133333,airport,faa,no
1OK,OK,FAIRMONT FLD,FAIRMONT,GARFIELD,36.36523611,-97.66784166,airport,faa,no
1P1,NH,PLYMOUTH MUNI,PLYMOUTH,GRAFTON,43.77825416,-71.75385,airport,faa,no
1PP,OK,STILWELL / CHEROKEE NATION,STILWELL,ADAIR,35.75718472,-94.64985694,airport,faa,no
1Q1,CA,ECKERT FLD,STRATHMORE,TULARE,36.16238888,-119.05063888,airport,faa,no
1Q2,CA,SPAULDING,SUSANVILLE,LASSEN,40.65030555,-120.76850888,airport,faa,no
1Q4,CA,NEW JERUSALEM,TRACY,SAN JOAQUIN,37.67777777,-121.30119444,airport,faa,no
1Q5,CA,GRAVELLY VALLEY,UPPER LAKE,LAKE,39.45072222,-122.95461111,airport,faa,no
1QK,KS,GOVE COUNTY,QUINTER,GOVE,39.03859,-100.23388833,airport,faa,no
1R1,LA,JENA,JENA,LA SALLE,31.66881472,-92.15759555,airport,faa,no
1R4,LA,WOODWORTH,WOODWORTH,RAPIDES,31.12635277,-92.50128888,airport,faa,no
1R7,MS,BROOKHAVEN-LINCOLN COUNTY,BROOKHAVEN,LINCOLN,31.60583333,-90.40930555,airport,faa,no
1R8,AL,BAY MINETTE MUNI,BAY MINETTE,BALDWIN,30.87033333,-87.81933333,airport,faa,no
1RL,WA,POINT ROBERTS AIRPARK,POINT ROBERTS,WHATCOM,48.97713888,-123.07922222,airport,faa,no
1S1,ID,ECKHART INTL,PORTHILL,BOUNDARY,48.99047222,-116.50205555,airport,faa,no
1S2,WA,DARRINGTON MUNI,DARRINGTON,SNOHOMISH,48.2586125,-121.61020361,airport,faa,no
1S3,MT,TILLITT FLD,FORSYTH,ROSEBUD,46.27115077,-106.62390211,airport,faa,no
1S4,OK,SEILING,SEILING,DEWEY,36.15536111,-98.93369444,airport,faa,no
1S5,WA,SUNNYSIDE MUNI,SUNNYSIDE,YAKIMA,46.32707222,-119.97036222,airport,faa,no
1S6,ID,PRIEST RIVER MUNI,PRIEST RIVER,BONNER,48.19064611,-116.90986194,airport,faa,no
1S7,ID,SLATE CREEK,SLATE CREEK,IDAHO,45.67177777,-116.30572222,airport,faa,no
1S8,OR,ARLINGTON MUNI,ARLINGTON,GILLIAM,45.72255555,-120.17697222,airport,faa,no
1S9,WA,CHEWELAH MUNI,CHEWELAH,STEVENS,48.31395819,-117.74342597,airport,faa,no
1T7,TX,KESTREL AIRPARK,SAN ANTONIO,COMAL,29.81175,-98.42605555,airport,faa,no
1T8,TX,BULVERDE AIRPARK,SAN ANTONIO,COMAL,29.73936513,-98.45129444,airport,faa,no
1U0,ID,BEAR TRAP,MINIDOKA,BLAINE,42.97533333,-113.35075,airport,faa,no
1U1,ID,MOOSE CREEK /USFS/,MOOSE CREEK RANGER STATION,IDAHO,46.12631944,-114.92170277,airport,faa,no
1U2,ID,MUD LAKE/WEST JEFFERSON COUNTY,MUD LAKE,JEFFERSON,43.85126527,-112.50102777,airport,faa,no
1U3,ID,MURPHY,MURPHY,OWYHEE,43.21594444,-116.54836111,airport,faa,no
1U4,ID,NEW MEADOWS,NEW MEADOWS,ADAMS,44.978,-116.28391666,airport,faa,no
1U6,ID,OAKLEY MUNI,OAKLEY,CASSIA,42.23388888,-113.87763888,airport,faa,no
1U7,ID,BEAR LAKE COUNTY,PARIS,BEAR LAKE,42.24976111,-111.34162722,airport,faa,no
1U9,ID,PINE,PINE,ELMORE,43.46625,-115.31002777,airport,faa,no
1UT,UT,FREMONT ISLAND LOWER,HOOPER,WEBER,41.17568,-112.380385,airport,faa,no
1V0,NM,NAVAJO LAKE,NAVAJO DAM,SAN JUAN,36.80829055,-107.65261416,airport,faa,no
1V2,NE,GRANT COUNTY,HYANNIS,GRANT,42.00999444,-101.77006388,airport,faa,no
1V6,CO,FREMONT COUNTY,CANON CITY,FREMONT,38.42856022,-105.10685441,airport,faa,no
1V8,CO,LEACH,CENTER,SAGUACHE,37.78491666,-106.04691666,airport,faa,no
1W1,WA,GROVE FLD,CAMAS,CLARK,45.62782944,-122.40431138,airport,faa,no
1W3,MD,MEXICO FARMS,CUMBERLAND,ALLEGANY,39.6059875,-78.76045972,airport,faa,no
1WF,OH,WACO FLD,TROY,MIAMI,40.01479444,-84.19807916,airport,faa,no
1X1,TX,HIGGINS/LIPSCOMB COUNTY,HIGGINS,LIPSCOMB,36.10590277,-100.02570666,airport,faa,no
1Y3,IA,JUDGE LEWIS FLD/MOUNT AYR MUNI,MOUNT AYR,RINGGOLD,40.70638888,-94.22027777,airport,faa,no
1Y5,IA,NEW HAMPTON MUNI,NEW HAMPTON,CHICKASAW,43.08719583,-92.3432325,airport,faa,no
1Y9,IA,PAULLINA MUNI,PAULLINA,O BRIEN,42.98788888,-95.66447222,airport,faa,no
1Z1,AZ,GRAND CANYON BAR TEN AIRSTRIP,WHITMORE,MOHAVE,36.2565,-113.23088888,airport,faa,no
20A,AL,ROBBINS FLD,ONEONTA,BLOUNT,33.97127777,-86.38038888,airport,faa,no
20K,AK,QUAIL CREEK,QUAIL CREEK,YUKON-KOYUKUK,65.35471944,-149.76137777,airport,faa,no
20M,MS,MACON MUNI,MACON,NOXUBEE,33.13372222,-88.536,airport,faa,no
20N,NY,KINGSTON-ULSTER,KINGSTON,ULSTER,41.98525,-73.96433333,airport,faa,no
20R,TX,CRYSTAL CITY MUNI,CRYSTAL CITY,ZAVALA,28.69755555,-99.81766666,airport,faa,no
20T,TX,ARESTI AERODROME,GODLEY,JOHNSON,32.47069472,-97.56030055,airport,faa,no
20U,ND,BEACH,BEACH,GOLDEN VALLEY,46.92516666,-103.98205555,airport,faa,no
20V,CO,MC ELROY AIRFIELD,KREMMLING,GRAND,40.05343416,-106.36897444,airport,faa,no
21D,MN,LAKE ELMO,ST PAUL,WASHINGTON,44.99719694,-92.85368611,airport,faa,no
21F,TX,JACKSBORO MUNI,JACKSBORO,JACK,33.22786111,-98.14644444,airport,faa,no
21N,NY,MATTITUCK,MATTITUCK,SUFFOLK,40.98694444,-72.51913888,airport,faa,no
21W,WA,RANGER CREEK,GREENWATER,PIERCE,47.01313888,-121.53366666,airport,faa,no
22D,PA,BANDEL,EIGHTY FOUR,WASHINGTON,40.13059444,-80.09613888,airport,faa,no
22F,TX,KENT COUNTY,JAYTON,KENT,33.22911111,-100.56911111,airport,faa,no
22I,OH,VINTON COUNTY,MC ARTHUR,VINTON,39.32798888,-82.44115694,airport,faa,no
22M,MS,PONTOTOC COUNTY,PONTOTOC,PONTOTOC,34.27555555,-89.03802777,airport,faa,no
22N,PA,JAKE ARNER MEML,LEHIGHTON,CARBON,40.80950888,-75.76149638,airport,faa,no
22S,OR,PAISLEY,PAISLEY,LAKE,42.71797222,-120.56277777,airport,faa,no
22T,MI,TECUMSEH MILLS,TECUMSEH,LENAWEE,42.03384863,-83.87835352,airport,faa,no
23D,MN,KARLSTAD MUNI,KARLSTAD,KITTSON,48.57760138,-96.54126805,airport,faa,no
23M,MS,CLARKE COUNTY,QUITMAN,CLARKE,32.0859545,-88.73902519,airport,faa,no
23N,NY,BAYPORT AERODROME,BAYPORT,SUFFOLK,40.75759611,-73.05268972,airport,faa,no
23R,TX,DEVINE MUNI,DEVINE,MEDINA,29.13838888,-98.94188888,airport,faa,no
23S,MT,SEELEY LAKE,SEELEY LAKE,MISSOULA,47.18194444,-113.44522222,airport,faa,no
23W,WI,CORNUCOPIA FLD,CORNUCOPIA,BAYFIELD,46.8662178,-91.0836015,airport,faa,no
24A,NC,JACKSON COUNTY,SYLVA,JACKSON,35.31721111,-83.20970361,airport,faa,no
24C,MI,LOWELL CITY,LOWELL,KENT,42.95465833,-85.34561666,airport,faa,no
24F,TX,CYPRESS RIVER,JEFFERSON,MARION,32.74430611,-94.30466138,airport,faa,no
24J,FL,SUWANNEE COUNTY,LIVE OAK,SUWANNEE,30.30038888,-83.02438888,airport,faa,no
24K,ID,KRASSEL USFS,MC CALL,VALLEY,44.97422222,-115.72975,airport,faa,no
24M,MI,WILDERNESS AIRPARK,KENT CITY,KENT,43.24474638,-85.71170888,airport,faa,no
24N,NM,JICARILLA APACHE NATION,DULCE,RIO ARRIBA,36.828535,-106.88419138,airport,faa,no
24R,TX,DILLEY AIRPARK,DILLEY,FRIO,28.6855,-99.18908333,airport,faa,no
24S,OR,PINEHURST STATE,PINEHURST,JACKSON,42.11019444,-122.38311111,airport,faa,no
25D,MN,FOREST LAKE,FOREST LAKE,WASHINGTON,45.24740972,-92.99285416,airport,faa,no
25J,GA,RANDOLPH COUNTY,CUTHBERT,RANDOLPH,31.70186727,-84.82700672,airport,faa,no
25M,MS,RIPLEY,RIPLEY,TIPPAH,34.72272222,-89.01469444,airport,faa,no
25U,OR,MEMALOOSE USFS,IMNAHA,WALLOWA,45.42786111,-116.69388888,airport,faa,no
26A,AL,ASHLAND/LINEVILLE,ASHLAND/LINEVILLE,CLAY,33.28419722,-85.80896527,airport,faa,no
26N,NJ,OCEAN CITY MUNI,OCEAN CITY,CAPE MAY,39.26347916,-74.60747638,airport,faa,no
26R,TX,JACKSON COUNTY,EDNA,JACKSON,29.00099916,-96.58196194,airport,faa,no
26U,OR,MC DERMITT STATE,MC DERMITT,MALHEUR,42.01030555,-117.72713888,airport,faa,no
26W,MI,WOLF LAKE,NAPOLEON,JACKSON,42.20972222,-84.23166666,airport,faa,no
27C,MI,MECOSTA MORTON,MECOSTA,MECOSTA,43.6300463,-85.26148936,airport,faa,no
27K,KY,GEORGETOWN-SCOTT COUNTY RGNL,GEORGETOWN,SCOTT,38.23443416,-84.43468361,airport,faa,no
27P,IA,ELDORA,ELDORA,HARDIN,42.32990555,-93.11428333,airport,faa,no
27R,TX,ELDORADO,ELDORADO,SCHLEICHER,30.86222222,-100.61086111,airport,faa,no
27W,WA,LAKE WENATCHEE STATE,LEAVENWORTH,CHELAN,47.81941361,-120.71989416,airport,faa,no
28A,NC,GOOSE CREEK,INDIAN TRAIL,UNION,35.12097944,-80.58728944,airport,faa,no
28J,FL,PALATKA MUNI/LT KAY LARKIN FLD,PALATKA,PUTNAM,29.658,-81.6901175,airport,faa,no
28M,MA,CRANLAND,HANSON,PLYMOUTH,42.02513888,-70.83811111,airport,faa,no
28N,NJ,VINELAND-DOWNSTOWN,VINELAND,GLOUCESTER,39.53958333,-74.96766666,airport,faa,no
28U,OR,OWYHEE RESERVOIR STATE,OWYHEE,MALHEUR,43.42483333,-117.34566666,airport,faa,no
28X,TX,GREEN ACRES AIRFIELD,PAMPA,GRAY,35.4541273,-100.9938148,airport,faa,no
29C,MI,GRINDSTONE AIR HARBOR,PORT AUSTIN,HURON,44.04677777,-82.91441666,airport,faa,no
29D,PA,GROVE CITY,GROVE CITY,MERCER,41.14602777,-80.16775,airport,faa,no
29F,TX,JOE VAUGHN SPRAYING,KRESS,SWISHER,34.39283333,-101.75991666,airport,faa,no
29N,NJ,KROELINGER,VINELAND,CUMBERLAND,39.52400416,-75.04634277,airport,faa,no
29S,MT,GARDINER,GARDINER,PARK,45.04993555,-110.74660083,airport,faa,no
2A0,TN,MARK ANTON,DAYTON,RHEA,35.48625,-84.93108333,airport,faa,no
2A1,TN,JAMESTOWN MUNI,JAMESTOWN,FENTRESS,36.34970361,-84.94665333,airport,faa,no
2A2,AR,HOLLEY MOUNTAIN AIRPARK,CLINTON,VAN BUREN,35.65071902,-92.40381294,airport,faa,no
2A3,AK,LARSEN BAY,LARSEN BAY,KODIAK ISLAND,57.53508333,-153.97666666,airport,faa,no
2A6,AR,HOLLY GROVE MUNI,HOLLY GROVE,MONROE,34.58244444,-91.16522222,airport,faa,no
2A8,AL,ADDISON MUNI,ADDISON,WINSTON,34.21714166,-87.15815833,airport,faa,no
2A9,AK,KOTLIK,KOTLIK,KUSILVAK,63.03058333,-163.53263888,airport,faa,no
2AK,AK,LIME VILLAGE,LIME VILLAGE,BETHEL,61.35913055,-155.44038611,airport,faa,no
2AN,AK,TISCHNER AIR,ANDERSON,DENALI,64.25450555,-149.19207777,airport,faa,no
2B1,MA,CAPE COD,MARSTON MILLS,BARNSTABLE,41.68527777,-70.40225,airport,faa,no
2B2,MA,PLUM ISLAND,NEWBURYPORT,ESSEX,42.79536111,-70.83944444,airport,faa,no
2B3,NH,PARLIN FLD,NEWPORT,SULLIVAN,43.38713527,-72.18761416,airport,faa,no
2B6,OH,HOLLISTER FLD,WILMINGTON,CLINTON,39.43756194,-83.70825611,airport,faa,no
2B7,ME,PITTSFIELD MUNI,PITTSFIELD,SOMERSET,44.76852777,-69.37441666,airport,faa,no
2B9,VT,POST MILLS,POST MILLS,ORANGE,43.88372222,-72.25208333,airport,faa,no
2C5,MI,ALMENA,PAW PAW,VAN BUREN,42.25298472,-85.85165416,airport,faa,no
2C6,IL,TRI-COUNTY,YATES CITY,KNOX,40.774,-90.07441666,airport,faa,no
2C7,AK,SHAKTOOLIK,SHAKTOOLIK,NOME,64.37108333,-161.22397222,airport,faa,no
2C8,ND,CAVALIER MUNI,CAVALIER,PEMBINA,48.78372222,-97.63197222,airport,faa,no
2D1,OH,LEE FLD,ALLIANCE,STARK,40.96997075,-81.09866697,airport,faa,no
2D5,ND,OAKES MUNI,OAKES,DICKEY,46.17329611,-98.08003861,airport,faa,no
2D7,OH,BEACH CITY,BEACH CITY,STARK,40.64635138,-81.5559,airport,faa,no
2E2,MI,SHARPE'S STRIP,EMMETT,ST CLAIR,42.95160833,-82.77586527,airport,faa,no
2E5,TX,DELL CITY MUNI,DELL CITY,HUDSPETH,31.94762222,-105.19178333,airport,faa,no
2E6,SD,GROTON MUNI,GROTON,BROWN,45.53373611,-98.09392777,airport,faa,no
2E7,TX,MC LEAN/GRAY COUNTY,MC LEAN,GRAY,35.24686111,-100.54680555,airport,faa,no
2E8,MI,CACKLEBERRY,DEXTER,WASHTENAW,42.42513194,-83.86855416,airport,faa,no
2F0,TX,IRAAN MUNI,IRAAN,PECOS,30.90622222,-101.88980555,airport,faa,no
2F1,TX,SHAMROCK MUNI,SHAMROCK,WHEELER,35.23461111,-100.18530555,airport,faa,no
2F4,TX,T-BAR,TAHOKA,LYNN,33.181,-101.81938888,airport,faa,no
2F6,OK,SKIATOOK MUNI,SKIATOOK,OSAGE,36.35514416,-96.01072561,airport,faa,no
2F7,TX,COMMERCE MUNI,COMMERCE,HUNT,33.29286111,-95.89641666,airport,faa,no
2G1,OH,CONCORD AIRPARK,PAINESVILLE,LAKE,41.6670435,-81.19718336,airport,faa,no
2G2,OH,GEARY A BATES/JEFFERSON COUNTY AIRPARK,STEUBENVILLE,JEFFERSON,40.36061111,-80.70169444,airport,faa,no
2G4,MD,GARRETT COUNTY,OAKLAND,GARRETT,39.58080555,-79.33594444,airport,faa,no
2G5,TX,GRANITE SHOALS/ BOB SYLVESTER AIRPARK,GRANITE SHOALS,BURNET,30.58935472,-98.37030361,airport,faa,no
2G8,NH,GORHAM,GORHAM,COOS,44.39358194,-71.19808888,airport,faa,no
2G9,PA,SOMERSET COUNTY,SOMERSET,SOMERSET,40.03850313,-79.01529641,airport,faa,no
2GC,NC,GRAYS CREEK,FAYETTEVILLE,CUMBERLAND,34.89369166,-78.84353055,airport,faa,no
2H0,IL,SHELBY COUNTY,SHELBYVILLE,SHELBY,39.41130277,-88.84552222,airport,faa,no
2H2,MO,JERRY SUMNERS SR AURORA MUNI,AURORA,LAWRENCE,36.96230555,-93.69533333,airport,faa,no
2H5,TX,HOUSTON FORT BEND,HOUSTON,FORT BEND,29.49916666,-95.89838888,airport,faa,no
2H9,ND,ROLETTE,ROLETTE,ROLETTE,48.6668625,-99.85316111,airport,faa,no
2I0,KY,MADISONVILLE RGNL,MADISONVILLE,HOPKINS,37.3559275,-87.39821972,airport,faa,no
2I3,KY,ROUGH RIVER STATE PARK,FALLS-OF-ROUGH,GRAYSON,37.60981527,-86.50716527,airport,faa,no
2IS,FL,AIRGLADES,CLEWISTON,HENDRY,26.73517083,-81.05106,airport,faa,no
2J0,FL,WAKULLA COUNTY,PANACEA,WAKULLA,29.98945555,-84.39539166,airport,faa,no
2J3,GA,LOUISVILLE MUNI,LOUISVILLE,JEFFERSON,32.98594444,-82.38480555,airport,faa,no
2J5,GA,MILLEN,MILLEN,JENKINS,32.89302777,-81.96522222,airport,faa,no
2J8,FL,PIERSON MUNI,PIERSON,VOLUSIA,29.25002777,-81.45933333,airport,faa,no
2J9,FL,QUINCY MUNI,QUINCY,GADSDEN,30.59788638,-84.55744027,airport,faa,no
2K1,OK,POND CREEK MUNI,POND CREEK,GRANT,36.66253027,-97.80866611,airport,faa,no
2K4,OK,SCOTT FLD,MANGUM,GREER,34.89261111,-99.52822222,airport,faa,no
2K5,AK,TELIDA,TELIDA,KUSKOKWIM,63.37898472,-153.28421527,airport,faa,no
2K6,KS,ELK COUNTY,MOLINE,ELK,37.38091666,-96.27111111,airport,faa,no
2K7,KS,NEODESHA MUNI,NEODESHA,WILSON,37.43536444,-95.64611888,airport,faa,no
2K8,KS,ARGONIA MUNI,ARGONIA,SUMNER,37.27536666,-97.75875,airport,faa,no
2K9,OK,HASKELL,HASKELL,MUSKOGEE,35.83285252,-95.667417,airport,faa,no
2KL,TX,SUNRISE BEACH,SUNRISE BEACH VILLAGE,LLANO,30.59922222,-98.40922222,airport,faa,no
2L0,LA,PINEVILLE MUNI,PINEVILLE,RAPIDES,31.34219166,-92.44357777,airport,faa,no
2L1,ND,LARIMORE MUNI,LARIMORE,GRAND FORKS,47.90671388,-97.64097222,airport,faa,no
2M0,KY,PRINCETON-CALDWELL COUNTY,PRINCETON,CALDWELL,37.11513216,-87.85708216,airport,faa,no
2M1,MO,HARRY S TRUMAN RGNL,BATES CITY,LAFAYETTE,39.01963888,-94.0865,airport,faa,no
2M2,TN,LAWRENCEBURG/LAWRENCE COUNTY (FLEEMAN FLD),LAWRENCEBURG,LAWRENCE,35.23430111,-87.25794361,airport,faa,no
2M4,MS,G V MONTGOMERY,FOREST,SCOTT,32.35494444,-89.48816666,airport,faa,no
2M7,MI,HOFFMAN'S BLACK MOUNTAIN AERODROME,CHEBOYGAN,CHEBOYGAN,45.53161666,-84.30804444,airport,faa,no
2M8,TN,CHARLES W BAKER,MILLINGTON,SHELBY,35.27848038,-89.93299661,airport,faa,no
2MO,MO,MOUNT VERNON MUNI,MOUNT VERNON,LAWRENCE,37.06839027,-93.88493027,airport,faa,no
2N2,NH,NEWFOUND VALLEY,BRISTOL,GRAFTON,43.59201805,-71.75146805,airport,faa,no
2N5,PA,KAMPEL,WELLSVILLE,YORK,40.04950972,-76.97715,airport,faa,no
2N6,NJ,REDWING,JOBSTOWN,BURLINGTON,40.02708333,-74.69088888,airport,faa,no
2O1,CA,GANSNER FLD,QUINCY,PLUMAS,39.94391666,-120.94538888,airport,faa,no
2O3,CA,ANGWIN-PARRETT FLD,ANGWIN,NAPA,38.58002777,-122.43547222,airport,faa,no
2O6,CA,CHOWCHILLA,CHOWCHILLA,MADERA,37.11327777,-120.247,airport,faa,no
2O7,CA,INDEPENDENCE,INDEPENDENCE,INYO,36.81637238,-118.20493255,airport,faa,no
2O8,OK,HINTON MUNI,HINTON,CADDO,35.50722222,-98.34255555,airport,faa,no
2P2,WI,WASHINGTON ISLAND,WASHINGTON ISLAND,DOOR,45.38825458,-86.92404027,airport,faa,no
2P7,OH,ALDERMAN,ST CLAIRSVILLE,BELMONT,40.05686308,-80.96318794,airport,faa,no
2Q0,SC,FLYING W,HARTSVILLE,DARLINGTON,34.42892222,-80.06993888,airport,faa,no
2Q9,NV,DYER,DYER,ESMERALDA,37.60965361,-118.00648888,airport,faa,no
2R0,MS,WAYNESBORO MUNI,WAYNESBORO,WAYNE,31.64355388,-88.635095,airport,faa,no
2R1,LA,LE MAIRE MEML,JEANERETTE,IBERIA,29.89906944,-91.666,airport,faa,no
2R2,IN,HENDRICKS COUNTY-GORDON GRAHAM FLD,INDIANAPOLIS,HENDRICKS,39.74677777,-86.47516666,airport,faa,no
2R4,FL,PETER PRINCE FLD,MILTON,SANTA ROSA,30.6376225,-86.99365305,airport,faa,no
2R5,AL,ST ELMO,ST ELMO,MOBILE,30.50191666,-88.27511111,airport,faa,no
2R6,LA,BUNKIE MUNI,BUNKIE,AVOYELLES,30.95674722,-92.23409972,airport,faa,no
2R7,LA,FRANKLINTON,FRANKLINTON,WASHINGTON,30.81944444,-90.11252777,airport,faa,no
2R9,TX,KENEDY RGNL,KENEDY,KARNES,28.82498569,-97.86556833,airport,faa,no
2RR,FL,RIVER RANCH RESORT,RIVER RANCH,POLK,27.77933333,-81.20391666,airport,faa,no
2S0,WA,TWISP MUNI,TWISP,OKANOGAN,48.35058527,-120.09395083,airport,faa,no
2S1,WA,VASHON MUNI,VASHON,KING,47.45858861,-122.47697194,airport,faa,no
2S2,OR,BEAVER MARSH,BEAVER MARSH,KLAMATH,43.12752777,-121.80872222,airport,faa,no
2S4,WA,WARDEN,WARDEN,GRANT,46.96581522,-119.06633172,airport,faa,no
2S5,WA,WATERVILLE,WATERVILLE,DOUGLAS,47.65600444,-120.05646277,airport,faa,no
2S6,OR,SPORTSMAN AIRPARK,NEWBERG,YAMHILL,45.29567333,-122.95537833,airport,faa,no
2S7,OR,CHILOQUIN STATE,CHILOQUIN,KLAMATH,42.57931844,-121.87901416,airport,faa,no
2S8,WA,WILBUR,WILBUR,LINCOLN,47.75338888,-118.74391666,airport,faa,no
2S9,WA,WILLAPA HARBOR,SOUTH BEND/RAYMOND/,PACIFIC,46.69762055,-123.82338305,airport,faa,no
2T1,TX,MULESHOE MUNI,MULESHOE,BAILEY,34.18513638,-102.64109805,airport,faa,no
2T2,IL,PERCIVAL SPRINGS,WATSON,EFFINGHAM,39.01444444,-88.53927777,airport,faa,no
2TX,TX,SALADO,SALADO,BELL,30.9205785,-97.540105,airport,faa,no
2U0,ID,SMITH PRAIRIE,PRAIRIE,ELMORE,43.49836111,-115.54697222,airport,faa,no
2U4,ID,ROCKFORD MUNI,ROCKFORD,BINGHAM,43.1895,-112.53180555,airport,faa,no
2U5,ID,SHEARER /USFS/,SHEARER,IDAHO,45.9895,-114.84127777,airport,faa,no
2U7,ID,STANLEY,STANLEY,CUSTER,44.20855555,-114.93452777,airport,faa,no
2U8,ID,THOMAS CREEK,STANLEY,VALLEY,44.72330555,-115.00397222,airport,faa,no
2UT,UT,FREMONT ISLAND UPPER,HOOPER,WEBER,41.15937722,-112.33308,airport,faa,no
2V5,CO,WRAY MUNI,WRAY,YUMA,40.10039694,-102.2411725,airport,faa,no
2V6,CO,YUMA MUNI,YUMA,YUMA,40.10571047,-102.71443769,airport,faa,no
2VA,IA,ZANGGER VINTAGE AIRPARK,LARCHWOOD,LYON,43.45063077,-96.40466586,airport,faa,no
2W1,WA,DE VERE FLD,CLE ELUM,KITTITAS,47.17758111,-120.85266083,airport,faa,no
2W2,MD,CLEARVIEW AIRPARK,WESTMINSTER,CARROLL,39.46701833,-77.01743194,airport,faa,no
2W3,WA,SWANSON FLD,EATONVILLE,PIERCE,46.87166666,-122.25722222,airport,faa,no
2W5,MD,MARYLAND,INDIAN HEAD,CHARLES,38.59704861,-77.07245833,airport,faa,no
2W6,MD,ST MARY'S COUNTY RGNL,LEONARDTOWN,ST MARYS,38.31570861,-76.55215888,airport,faa,no
2Y1,IA,DRAKE,RADCLIFFE,HARDIN,42.31751388,-93.4151625,airport,faa,no
2Y4,IA,ROCKWELL CITY MUNI,ROCKWELL CITY,CALHOUN,42.38782222,-94.61890277,airport,faa,no
2Z2,AK,EUREKA CREEK,EUREKA CREEK,YUKON-KOYUKUK,65.17591138,-150.22053861,airport,faa,no
2Z3,AK,EVA CREEK,EVA CREEK,FAIRBANKS NORTH STAR,64.04211111,-148.86313888,airport,faa,no
30F,TX,LAKEVIEW,LAKE DALLAS,DENTON,33.13138888,-97.01419444,airport,faa,no
30K,KS,INGALLS MUNI,INGALLS,GRAY,37.90686111,-100.53141666,airport,faa,no
30M,MS,RALPH M SHARPE,TUNICA,TUNICA,34.65908333,-90.37622222,airport,faa,no
31D,PA,INTER COUNTY,IRWIN,WESTMORELAND,40.3334025,-79.77921222,airport,faa,no
31E,NJ,EAGLES NEST,WEST CREEK,OCEAN,39.66545416,-74.30804444,airport,faa,no
32A,AR,DANVILLE MUNI,DANVILLE,YELL,35.0872625,-93.42892416,airport,faa,no
32S,MT,STEVENSVILLE,STEVENSVILLE,RAVALLI,46.52511111,-114.05280555,airport,faa,no
33A,SC,FAIRVIEW,LANDRUM,SPARTANBURG,35.15733333,-82.12375,airport,faa,no
33J,AL,GENEVA MUNI,GENEVA,GENEVA,31.052625,-85.86894444,airport,faa,no
33K,KS,KINSLEY MUNI,KINSLEY,EDWARDS,37.90899444,-99.40310555,airport,faa,no
33M,MS,WATER VALLEY MUNI,WATER VALLEY,YALOBUSHA,34.16786111,-89.68488888,airport,faa,no
33N,DE,DELAWARE AIRPARK,DOVER/CHESWOLD,KENT,39.21869444,-75.60047222,airport,faa,no
33R,TX,GROVETON/TRINITY COUNTY,GROVETON,TRINITY,31.08433333,-95.16411111,airport,faa,no
33S,WA,PRU FLD,RITZVILLE,ADAMS,47.12345277,-118.38932777,airport,faa,no
33U,UT,DUTCH JOHN,DUTCH JOHN,DAGGETT,40.9178125,-109.39066069,airport,faa,no
33V,CO,WALDEN-JACKSON COUNTY,WALDEN,JACKSON,40.75038888,-106.27152777,airport,faa,no
34G,MI,MERILLAT,TECUMSEH,LENAWEE,41.975045,-83.92521916,airport,faa,no
34M,MO,CAMPBELL MUNI,CAMPBELL,DUNKLIN,36.48605555,-90.01569444,airport,faa,no
34R,TX,HALLETTSVILLE MUNI,HALLETTSVILLE,LAVACA,29.38995833,-96.95605972,airport,faa,no
35A,SC,"UNION COUNTY, TROY SHELTON FLD",UNION,UNION,34.68694916,-81.64116444,airport,faa,no
35C,MI,WELLS,ROCKFORD,KENT,43.12863333,-85.50518611,airport,faa,no
35D,MI,PADGHAM FLD,ALLEGAN,ALLEGAN,42.53043652,-85.823779,airport,faa,no
35S,OR,WASCO STATE,WASCO,SHERMAN,45.58920416,-120.67398472,airport,faa,no
35X,TX,TRIPLE-ACE FLD,DECATUR,WISE,33.25185555,-97.55355555,airport,faa,no
36K,KS,KEARNY COUNTY,LAKIN,KEARNY,37.96944444,-101.25558333,airport,faa,no
36S,CA,HAPPY CAMP,HAPPY CAMP,SISKIYOU,41.79067944,-123.38894444,airport,faa,no
37F,TX,MUNDAY MUNI,MUNDAY,KNOX,33.46872222,-99.58622222,airport,faa,no
37M,MO,HORNERSVILLE MEML,HORNERSVILLE,DUNKLIN,36.04199741,-90.14913438,airport,faa,no
37N,ND,GARRISON DAM RECREATIONAL AIRPARK,RIVERDALE,MC LEAN,47.48272777,-101.40814861,airport,faa,no
37S,MT,FORT PECK,FORT PECK,VALLEY,48.00483333,-106.47788888,airport,faa,no
37T,AR,CALICO ROCK MUNI,CALICO ROCK,IZARD,36.16573027,-92.14531138,airport,faa,no
37V,NE,ARAPAHOE MUNI,ARAPAHOE,FURNAS,40.34158333,-99.90780555,airport,faa,no
38C,MI,CAIN FLD,STANWOOD,MECOSTA,43.59847222,-85.49247222,airport,faa,no
38D,OH,SALEM AIRPARK,SALEM,MAHONING,40.94808083,-80.86208194,airport,faa,no
38I,OH,COOK,URBANA,CHAMPAIGN,40.09116805,-83.68936944,airport,faa,no
38K,KS,LUCAS,LUCAS,RUSSELL,39.061955,-98.52534416,airport,faa,no
38N,DE,SMYRNA,SMYRNA,KENT,39.30366666,-75.58380555,airport,faa,no
38S,MT,DEER LODGE-CITY-COUNTY,DEER LODGE,POWELL,46.38783333,-112.76494444,airport,faa,no
38U,UT,WAYNE WONDERLAND,LOA,WAYNE,38.36291444,-111.59598666,airport,faa,no
38W,WA,LYNDEN MUNI/JANSEN FLD,LYNDEN,WHATCOM,48.95589611,-122.45811833,airport,faa,no
39G,MI,AVOCA,AVOCA,ST CLAIR,43.03047777,-82.66946388,airport,faa,no
39K,KS,DRAGOON CREEK,LYNDON,OSAGE,38.69172222,-95.69016666,airport,faa,no
39N,NJ,PRINCETON,PRINCETON/ROCKY HILL,SOMERSET,40.39908888,-74.65900638,airport,faa,no
39P,WA,STROM FLD,MORTON,LEWIS,46.55036083,-122.26662583,airport,faa,no
39T,MI,TRIPP CREEK,ST JOHNS,CLINTON,43.06475277,-84.48915166,airport,faa,no
39Z,MI,FLYING-A-RANCH,FRUITPORT,OTTAWA,43.10511388,-86.12126944,airport,faa,no
3A2,TN,NEW TAZEWELL MUNI,TAZEWELL,CLAIBORNE,36.40889722,-83.55718583,airport,faa,no
3A4,NC,GREENSBORO EXEC,GREENSBORO,GUILFORD,35.94194833,-79.68550933,airport,faa,no
3A5,NV,FLYING M RANCH,YERINGTON,LYON,38.61275033,-119.00232019,airport,faa,no
3A7,AL,EUTAW MUNI,EUTAW,GREENE,32.82041666,-87.86508333,airport,faa,no
3A9,SD,ARLINGTON MUNI,ARLINGTON,BROOKINGS,44.39382916,-97.12294769,airport,faa,no
3AK,AK,DRY BAY,YAKUTAT,ALEUTIAN ISLANDS,59.16433333,-138.48880555,airport,faa,no
3AU,KS,AUGUSTA MUNI,AUGUSTA,BUTLER,37.66983444,-97.07802611,airport,faa,no
3B0,MA,SOUTHBRIDGE MUNI,SOUTHBRIDGE,WORCESTER,42.10111111,-72.03883333,airport,faa,no
3B1,ME,GREENVILLE MUNI,GREENVILLE,PISCATAQUIS,45.46283138,-69.55164944,airport,faa,no
3B3,MA,STERLING,STERLING,WORCESTER,42.4259025,-71.79285083,airport,faa,no
3B4,ME,SEACOAST AIRFIELD,ELIOT,YORK,43.1431343,-70.77343611,airport,faa,no
3B8,WA,SHADY ACRES,SPANAWAY,PIERCE,47.07038888,-122.37108333,airport,faa,no
3C1,IN,MISHAWAKA PILOTS CLUB,ELKHART,ELKHART,41.65699305,-86.03472388,airport,faa,no
3CK,IL,LAKE IN THE HILLS,CHICAGO/LAKE IN THE HILLS,MC HENRY,42.20686111,-88.32269444,airport,faa,no
3CM,MI,JAMES CLEMENTS MUNI,BAY CITY,BAY,43.54694444,-83.89547222,airport,faa,no
3CU,WI,CABLE UNION,CABLE,BAYFIELD,46.19493305,-91.24845305,airport,faa,no
3D1,WI,CRIVITZ MUNI,CRIVITZ,MARINETTE,45.21464086,-88.07329816,airport,faa,no
3D2,WI,EPHRAIM/GIBRALTAR,EPHRAIM,DOOR,45.13542388,-87.1879425,airport,faa,no
3DA,MI,DALTON,FLUSHING,GENESEE,43.05684069,-83.80460008,airport,faa,no
3DW,MO,DOWNTOWN,SPRINGFIELD,GREENE,37.22270555,-93.24834861,airport,faa,no
3E0,TX,MIAMI-ROBERTS COUNTY,MIAMI,ROBERTS,35.71393222,-100.60319222,airport,faa,no
3EV,IN,SKYLANE,EVANSVILLE,VANDERBURGH,38.01194444,-87.59486111,airport,faa,no
3EX,MO,EXCELSIOR SPRINGS MEML,EXCELSIOR SPRINGS,RAY,39.33727777,-94.19741666,airport,faa,no
3F2,TX,CISCO MUNI,CISCO,EASTLAND,32.41502777,-98.99683333,airport,faa,no
3F3,LA,C E 'RUSTY' WILLIAMS,MANSFIELD,DE SOTO,32.07277777,-93.76561111,airport,faa,no
3F4,LA,VIVIAN,VIVIAN,CADDO,32.86133333,-94.01015361,airport,faa,no
3F5,MI,FOREST HILL,WESTPHALIA,CLINTON,42.91155986,-84.67486425,airport,faa,no
3F6,TX,DAN E RICHARDS MUNI,PADUCAH,COTTLE,34.02763305,-100.2820025,airport,faa,no
3F7,OK,JONES MEML,BRISTOW,CREEK,35.80704611,-96.42113583,airport,faa,no
3F9,TX,MINEOLA WISENER FLD,MINEOLA,WOOD,32.67667497,-95.51095811,airport,faa,no
3FK,IN,FRANKLIN FLYING FLD,FRANKLIN,JOHNSON,39.42643888,-86.05832194,airport,faa,no
3FU,SD,FAULKTON MUNI,FAULKTON,FAULK,45.03067361,-99.11287222,airport,faa,no
3G2,MN,GRYGLA MUNI - MEL WILKENS FLD,GRYGLA,MARSHALL,48.29408333,-95.62597222,airport,faa,no
3G3,OH,WADSWORTH MUNI,WADSWORTH,MEDINA,41.00306111,-81.75652194,airport,faa,no
3G4,OH,ASHLAND COUNTY,ASHLAND,ASHLAND,40.90297222,-82.25563888,airport,faa,no
3G6,OH,TRI-CITY,SEBRING,MAHONING,40.906,-81.00002777,airport,faa,no
3G8,IL,GEN-AIRPARK,GENESEO,HENRY,41.43977777,-90.11005555,airport,faa,no
3G9,PA,BUTLER FARM SHOW,BUTLER,BUTLER,40.85256444,-79.97477972,airport,faa,no
3GM,MI,GRAND HAVEN MEML AIRPARK,GRAND HAVEN,OTTAWA,43.03405555,-86.19816666,airport,faa,no
3GV,MO,EAST KANSAS CITY,GRAIN VALLEY,JACKSON,39.01464119,-94.21485844,airport,faa,no
3H4,ND,HILLSBORO MUNI,HILLSBORO,TRAILL,47.35940777,-97.06041638,airport,faa,no
3HO,IN,HOBART SKY RANCH,HOBART,LAKE,41.5559,-87.26392222,airport,faa,no
3I2,WV,MASON COUNTY,POINT PLEASANT,MASON,38.91463472,-82.09857888,airport,faa,no
3I3,IN,SKY KING,TERRE HAUTE,VIGO,39.54778666,-87.3773525,airport,faa,no
3I4,WV,RICHWOOD MUNI,RICHWOOD,NICHOLAS,38.25838888,-80.65133333,airport,faa,no
3I7,OH,DAYTON/PHILLIPSBURG,DAYTON,MONTGOMERY,39.91327777,-84.4004125,airport,faa,no
3J0,SC,HAMPTON COUNTY,HAMPTON,HAMPTON,32.86651111,-81.08097027,airport,faa,no
3J1,SC,RIDGELAND-CLAUDE DEAN,RIDGELAND,JASPER,32.49685055,-80.99314888,airport,faa,no
3J6,GA,DAVIS FLD,FOLKSTON,CHARLTON,30.79636111,-82.02816666,airport,faa,no
3JA,KS,YATES CENTER MUNI,YATES CENTER,WOODSON,37.85474205,-95.74789102,airport,faa,no
3JC,KS,FREEMAN FLD,JUNCTION CITY,GEARY,39.04333333,-96.84327777,airport,faa,no
3K3,KS,SYRACUSE-HAMILTON COUNTY MUNI,SYRACUSE,HAMILTON,37.99858305,-101.74760777,airport,faa,no
3K4,KS,BORTH FLD,MEADE,MEADE,37.307608,-100.47631447,airport,faa,no
3K7,KS,MARK HOARD MEML,LEOTI,WICHITA,38.45752638,-101.35086472,airport,faa,no
3K8,KS,COMANCHE COUNTY,COLDWATER,COMANCHE,37.22286111,-99.33202777,airport,faa,no
3KK,IL,KANKAKEE,KANKAKEE,KANKAKEE,41.10003222,-87.91671,airport,faa,no
3KS,KS,HF STRIP,FOWLER,MEADE,37.4360845,-100.272131,airport,faa,no
3L2,NV,SKY RANCH,SANDY VALLEY,CLARK,35.79294444,-115.62641666,airport,faa,no
3L7,MI,MILWRICK FLYING M,LINCOLN,ALCONA,44.73834555,-83.37969222,airport,faa,no
3LF,IL,LITCHFIELD MUNI,LITCHFIELD,MONTGOMERY,39.1625,-89.67463888,airport,faa,no
3M0,AR,GASTONS,LAKEVIEW,BAXTER,36.34905555,-92.55580555,airport,faa,no
3M5,AL,MOONTOWN,HUNTSVILLE,MADISON,34.74736111,-86.46097222,airport,faa,no
3M7,TN,LAFAYETTE MUNI,LAFAYETTE,MACON,36.52002777,-86.05805555,airport,faa,no
3M8,AL,NORTH PICKENS,REFORM,PICKENS,33.38675277,-88.00657916,airport,faa,no
3M9,AR,WARREN MUNI/JOHN B FRAZER JR FLD,WARREN,BRADLEY,33.56044333,-92.08538861,airport,faa,no
3MY,IL,MOUNT HAWLEY AUXILIARY,PEORIA,PEORIA,40.79580555,-89.61347222,airport,faa,no
3N6,NJ,OLD BRIDGE,OLD BRIDGE,MIDDLESEX,40.32988666,-74.34678694,airport,faa,no
3N8,MN,MAHNOMEN COUNTY,MAHNOMEN,MAHNOMEN,47.26050516,-95.92808683,airport,faa,no
3NP,MI,NAPOLEON,NAPOLEON,JACKSON,42.1710038,-84.25930872,airport,faa,no
3O1,CA,GUSTINE,GUSTINE,MERCED,37.26055555,-120.96425,airport,faa,no
3O3,OK,PURCELL MUNI - STEVEN E SHEPHARD FLD,PURCELL,MC CLAIN,34.98334972,-97.38263833,airport,faa,no
3O4,OK,SAYRE MUNI,SAYRE,BECKHAM,35.16770916,-99.65780611,airport,faa,no
3O5,OK,WALTERS MUNI,WALTERS,COTTON,34.37258444,-98.40588583,airport,faa,no
3O8,CA,HARRIS RANCH,COALINGA,FRESNO,36.24811111,-120.23847222,airport,faa,no
3O9,OK,GRAND LAKE RGNL,AFTON,DELAWARE,36.5775775,-94.86190027,airport,faa,no
3OK,OK,BIGGS AIRPORT,WELLSTON,LINCOLN,35.6610395,-97.002327,airport,faa,no
3P3,ND,MOTT MUNI,MOTT,HETTINGER,46.35916194,-102.32824416,airport,faa,no
3Q0,NV,MINA,MINA,MINERAL,38.37986111,-118.09675,airport,faa,no
3R2,LA,LE GROS MEML,CROWLEY,ACADIA,30.16177777,-92.48397222,airport,faa,no
3R4,LA,HART,MANY,SABINE,31.54424722,-93.48380555,airport,faa,no
3R7,LA,JENNINGS,JENNINGS,JEFFERSON DAVIS,30.24269902,-92.67349927,airport,faa,no
3R8,IN,HONAKER FLD,SCOTTSBURG,SCOTT,38.6577,-85.79058472,airport,faa,no
3R9,TX,LAKEWAY AIRPARK,LAKEWAY,TRAVIS,30.35749111,-97.99446777,airport,faa,no
3RC,MI,ROSCOMMON CONSERVATION,ROSCOMMON,ROSCOMMON,44.47369627,-84.56367416,airport,faa,no
3S4,OR,ILLINOIS VALLEY,CAVE JUNCTION,JOSEPHINE,42.1036,-123.68241666,airport,faa,no
3S5,MI,SCHIFFER ACRES,ST JOHNS,CLINTON,43.03619444,-84.43418055,airport,faa,no
3S6,OR,TOKETEE STATE,CLEARWATER,DOUGLAS,43.22344444,-122.42116666,airport,faa,no
3S7,OR,NEHALEM BAY STATE,MANZANITA,TILLAMOOK,45.69813888,-123.92963888,airport,faa,no
3S8,OR,GRANTS PASS,GRANTS PASS,JOSEPHINE,42.51012083,-123.38799,airport,faa,no
3S9,OR,CONDON STATE PAULING FLD,CONDON,GILLIAM,45.24656666,-120.16645,airport,faa,no
3T0,TX,CEDAR MILLS,GORDONVILLE,GRAYSON,33.83934608,-96.81006897,airport,faa,no
3T2,TX,WOLFE AIR PARK,MANVEL,BRAZORIA,29.47908333,-95.32655555,airport,faa,no
3T3,WI,BOYCEVILLE MUNI,BOYCEVILLE,DUNN,45.04395325,-92.02132816,airport,faa,no
3T4,AK,TETLIN,TETLIN,SOUTHEAST FAIRBANKS,63.12469444,-142.51855555,airport,faa,no
3T5,TX,FAYETTE RGNL AIR CENTER,LA GRANGE,FAYETTE,29.90797222,-96.95,airport,faa,no
3T6,TX,CLARK,JUSTIN,DENTON,33.13361111,-97.29702777,airport,faa,no
3T7,OH,MIDDLE BASS ISLAND,MIDDLE BASS ISLAND,OTTAWA,41.68838888,-82.80816666,airport,faa,no
3T8,TX,WILDCAT CANYON,CHINA SPRING,MC LENNAN,31.67855555,-97.36255555,airport,faa,no
3T9,TX,BIG BEND RANCH STATE PARK,PRESIDIO,PRESIDIO,29.47108333,-103.93641666,airport,faa,no
3TA,KS,STAFFORD MUNI,STAFFORD,STAFFORD,37.95834833,-98.65036194,airport,faa,no
3TE,MI,AL MEYERS,TECUMSEH,LENAWEE,42.02511083,-83.93929694,airport,faa,no
3TR,MI,JERRY TYLER MEML,NILES,BERRIEN,41.83588888,-86.22516666,airport,faa,no
3TX,TX,AKROVILLE,SLIDELL,DENTON,33.39285063,-97.35384722,airport,faa,no
3U0,ID,MURPHY HOT SPRINGS,THREE CREEK,OWYHEE,42.02355555,-115.33544444,airport,faa,no
3U1,ID,WARREN /USFS/,WARREN,IDAHO,45.26811111,-115.68361111,airport,faa,no
3U2,ID,JOHNSON CREEK,YELLOW PINE,VALLEY,44.91172222,-115.48552777,airport,faa,no
3U3,MT,BOWMAN FLD,ANACONDA,DEER LODGE,46.1534145,-112.86773455,airport,faa,no
3U4,MT,ST LABRE MISSION,ASHLAND,ROSEBUD,45.60655555,-106.27425,airport,faa,no
3U5,MT,AUGUSTA,AUGUSTA,LEWIS AND CLARK,47.46341666,-112.38011111,airport,faa,no
3U7,MT,BENCHMARK,AUGUSTA,LEWIS AND CLARK,47.48202777,-112.87230555,airport,faa,no
3U8,MT,BIG SANDY,BIG SANDY,CHOUTEAU,48.16343586,-110.11428386,airport,faa,no
3U9,MT,BOULDER,BOULDER,JEFFERSON,46.21166666,-112.10761111,airport,faa,no
3VS,MO,ROY OTTEN MEML AIRFIELD,VERSAILLES,MORGAN,38.42827222,-92.87526388,airport,faa,no
3W2,OH,PUT IN BAY,PUT IN BAY,OTTAWA,41.63666666,-82.82833333,airport,faa,no
3W3,MD,KENTMORR AIRPARK,STEVENSVILLE,QUEEN ANNES,38.91811111,-76.35883333,airport,faa,no
3W5,WA,MEARS FLD,CONCRETE,SKAGIT,48.52983833,-121.75824888,airport,faa,no
3W6,NC,BLADENBORO,BLADENBORO,BLADEN,34.54286111,-78.77816666,airport,faa,no
3W7,WA,GRAND COULEE DAM,ELECTRIC CITY,GRANT,47.92205555,-119.083,airport,faa,no
3W8,SD,EUREKA MUNI,EUREKA,MC PHERSON,45.79999072,-99.64272,airport,faa,no
3W9,OH,MIDDLE BASS-EAST POINT,MIDDLE BASS ISLAND,OTTAWA,41.69444444,-82.79655555,airport,faa,no
3X5,OH,NORTH BASS ISLAND,NORTH BASS ISLAND,OTTAWA,41.718,-82.82111111,airport,faa,no
3Y2,IA,GEORGE L SCOTT MUNI,WEST UNION,FAYETTE,42.98522222,-91.79063888,airport,faa,no
3Y3,IA,WINTERSET MUNI,WINTERSET,MADISON,41.36280555,-94.02119444,airport,faa,no
3Y4,IA,WOODBINE MUNI,WOODBINE,HARRISON,41.73609944,-95.68361722,airport,faa,no
3Y7,SD,ISABEL MUNI,ISABEL,DEWEY,45.38971111,-101.43757222,airport,faa,no
3Z1,AK,FEATHER RIVER,FEATHER RIVER,NOME,64.83172722,-166.13152222,airport,faa,no
40C,MI,WATERVLIET MUNI,WATERVLIET,BERRIEN,42.20072172,-86.24936555,airport,faa,no
40D,WI,THREE LAKES MUNI,THREE LAKES,ONEIDA,45.79001805,-89.12128888,airport,faa,no
40G,AZ,VALLE,GRAND CANYON,COCONINO,35.65056527,-112.14809194,airport,faa,no
40I,OH,RED STEWART AIRFIELD,WAYNESVILLE,WARREN,39.50533777,-84.12187916,airport,faa,no
40U,UT,MANILA,MANILA,DAGGETT,40.98639444,-109.67852694,airport,faa,no
41C,MI,CALKINS FLD,WAYLAND,ALLEGAN,42.69166527,-85.64720833,airport,faa,no
41F,TX,FLOYDADA MUNI,FLOYDADA,FLOYD,34.00152777,-101.33025,airport,faa,no
41G,MI,UNIVERSITY AIRPARK,BATH,CLINTON,42.84099861,-84.47904722,airport,faa,no
41N,OH,BRACEVILLE,NEWTON FALLS,TRUMBULL,41.2111675,-80.96925722,airport,faa,no
41U,UT,SANPETE COUNTY RGNL,MANTI,SANPETE,39.33141666,-111.61261111,airport,faa,no
42A,AR,MELBOURNE MUNI/JOHN E MILLER FLD,MELBOURNE,IZARD,36.07098027,-91.83013555,airport,faa,no
42B,CT,GOODSPEED,EAST HADDAM,MIDDLESEX,41.44565444,-72.4556425,airport,faa,no
42C,MI,WHITE CLOUD,WHITE CLOUD,NEWAYGO,43.55984722,-85.77415277,airport,faa,no
42I,OH,PARR,ZANESVILLE,MUSKINGUM,40.00729166,-82.01347916,airport,faa,no
42J,FL,KEYSTONE HEIGHTS,KEYSTONE HEIGHTS,CLAY,29.84474138,-82.04753888,airport,faa,no
42M,MO,THAYER MEML,THAYER,OREGON,36.52228444,-91.57198694,airport,faa,no
42U,UT,MORGAN COUNTY,MORGAN,MORGAN,41.14867555,-111.76714861,airport,faa,no
43A,NC,MONTGOMERY COUNTY,STAR,MONTGOMERY,35.38464972,-79.79026638,airport,faa,no
43B,ME,DEBLOIS FLIGHT STRIP,DEBLOIS,WASHINGTON,44.726875,-67.99136111,airport,faa,no
43D,WA,ODESSA MUNI,ODESSA,LINCOLN,47.34758333,-118.67722222,airport,faa,no
43G,MI,BELLEVILLE,BELLEVILLE,WASHTENAW,42.17717916,-83.54502361,airport,faa,no
43K,KS,MARION MUNI,MARION,MARION,38.33761111,-96.98825,airport,faa,no
43Y,MN,NORTHOME MUNI,NORTHOME,KOOCHICHING,47.88799377,-94.25812916,airport,faa,no
44A,AZ,ROLLE AIRFIELD,SAN LUIS,YUMA,32.51630555,-114.69838888,airport,faa,no
44B,ME,CHARLES A CHASE JR MEML FLD,DOVER/FOXCROFT,PISCATAQUIS,45.17747222,-69.24466666,airport,faa,no
44C,WI,BELOIT,BELOIT,ROCK,42.49777777,-88.96761111,airport,faa,no
44G,MI,BETZ,BLISSFIELD,LENAWEE,41.8550375,-83.87076944,airport,faa,no
44M,OK,TENKILLER LAKE AIRPARK,COOKSON,CHEROKEE,35.70497222,-94.93613888,airport,faa,no
44N,NY,SKY ACRES,MILLBROOK,DUTCHESS,41.70742388,-73.7380225,airport,faa,no
44T,WA,HOSKINS FLD,OLYMPIA,THURSTON,46.99238888,-122.82783333,airport,faa,no
44U,UT,SALINA-GUNNISON,SALINA,SEVIER,39.02912833,-111.83825833,airport,faa,no
45G,MI,BRIGHTON,BRIGHTON,LIVINGSTON,42.56995694,-83.7785125,airport,faa,no
45K,KS,MINNEAPOLIS CITY COUNTY,MINNEAPOLIS,OTTAWA,39.09433333,-97.72105555,airport,faa,no
45R,TX,HAWTHORNE FLD,KOUNTZE/SILSBEE,HARDIN,30.33633333,-94.25755555,airport,faa,no
45S,OR,SILVER LAKE F S STRIP,SILVER LAKE,LAKE,43.1109725,-121.09416666,airport,faa,no
46D,ND,CARRINGTON MUNI,CARRINGTON,FOSTER,47.45111111,-99.15133333,airport,faa,no
46U,WY,ALPINE,ALPINE,LINCOLN,43.18180555,-111.0385,airport,faa,no
47K,KS,MOUNDRIDGE MUNI,MOUNDRIDGE,MC PHERSON,38.20909166,-97.502725,airport,faa,no
47N,NJ,CENTRAL JERSEY RGNL,MANVILLE,SOMERSET,40.52444444,-74.59830555,airport,faa,no
47V,NE,CURTIS MUNI,CURTIS,FRONTIER,40.63875,-100.47341666,airport,faa,no
47Y,MN,PELICAN RAPIDS MUNI-LYON'S FLD,PELICAN RAPIDS,OTTER TAIL,46.64132916,-96.10414444,airport,faa,no
48A,GA,COCHRAN,COCHRAN,BLECKLEY,32.40065805,-83.27840638,airport,faa,no
48D,MI,CLARE MUNI,CLARE,CLARE,43.83444444,-84.74022222,airport,faa,no
48I,WV,BRAXTON COUNTY,SUTTON,BRAXTON,38.68711111,-80.65208333,airport,faa,no
48K,KS,NESS CITY MUNI,NESS CITY,NESS,38.47375694,-99.90911888,airport,faa,no
48S,MT,HARLEM,HARLEM,BLAINE,48.56629455,-108.77403619,airport,faa,no
48U,WY,GTR GREEN RIVER INTERGALACTIC SPACEPORT,GREEN RIVER,SWEETWATER,41.45795555,-109.49019861,airport,faa,no
48X,FL,MANATEE,PALMETTO,MANATEE,27.64259722,-82.51991666,airport,faa,no
49A,GA,GILMER COUNTY,ELLIJAY,GILMER,34.62819444,-84.52655555,airport,faa,no
49B,SD,STURGIS MUNI,STURGIS,MEADE,44.41867697,-103.37772394,airport,faa,no
49C,WI,CAMP LAKE,CAMP LAKE,KENOSHA,42.52776777,-88.15609597,airport,faa,no
49F,TX,RANKIN,RANKIN,UPTON,31.22702777,-101.95291666,airport,faa,no
49G,MI,WEND VALLEY,CHARLOTTE,EATON,42.57795,-84.9090125,airport,faa,no
49K,KS,NORWICH,NORWICH,KINGMAN,37.45557388,-97.833665,airport,faa,no
49R,TX,REAL COUNTY,LEAKEY,REAL,29.74550111,-99.7608925,airport,faa,no
49U,WY,SHOSHONI MUNI,SHOSHONI,FREMONT,43.25097222,-108.12205555,airport,faa,no
49X,CA,CHEMEHUEVI VALLEY,CHEMEHUEVI VALLEY,SAN BERNARDINO,34.52888888,-114.43197222,airport,faa,no
4A2,AK,ATMAUTLUAK,ATMAUTLUAK,BETHEL,60.86787472,-162.274275,airport,faa,no
4A4,GA,POLK COUNTY/CORNELIUS MOORE FLD,CEDARTOWN,POLK,34.01852916,-85.14475888,airport,faa,no
4A5,AR,SEARCY COUNTY,MARSHALL,SEARCY,35.89869444,-92.65633333,airport,faa,no
4A6,AL,SCOTTSBORO MUNI-WORD FLD,SCOTTSBORO,JACKSON,34.68870444,-86.00593194,airport,faa,no
4A9,AL,ISBELL FLD,FORT PAYNE,DE KALB,34.47369444,-85.72138888,airport,faa,no
4AK,AK,LIVENGOOD CAMP,LIVENGOOD,YUKON-KOYUKUK,65.46726944,-148.65374722,airport,faa,no
4B0,NY,SOUTH ALBANY,SOUTH BETHLEHEM,ALBANY,42.56072222,-73.83394444,airport,faa,no
4B1,NY,DUANESBURG,DUANESBURG,SCHENECTADY,42.75986111,-74.13463888,airport,faa,no
4B6,NY,TICONDEROGA MUNI,TICONDEROGA,ESSEX,43.87727777,-73.41313888,airport,faa,no
4B7,NY,SCHROON LAKE,SCHROON LAKE,ESSEX,43.8625795,-73.74054722,airport,faa,no
4B8,CT,ROBERTSON FLD,PLAINVILLE,HARTFORD,41.68934222,-72.86469777,airport,faa,no
4B9,CT,SIMSBURY,SIMSBURY,HARTFORD,41.91619444,-72.77694444,airport,faa,no
4C2,IN,WALKER/ROWE WATERLOO,WATERLOO,DE KALB,41.43116138,-84.98163166,airport,faa,no
4C4,NH,GIFFORD FLD,COLEBROOK,COOS,44.88752361,-71.5077245,airport,faa,no
4C7,IA,ACKLEY MUNI,ACKLEY,HARDIN,42.54744444,-93.03341666,airport,faa,no
4C8,IA,ALBIA MUNI,ALBIA,MONROE,40.99627777,-92.76569444,airport,faa,no
4D0,MI,ABRAMS MUNI,GRAND LEDGE,CLINTON,42.77488194,-84.73313638,airport,faa,no
4D2,ID,HOODOO MEADOWS,SALMON,LEMHI,45.05644805,-114.55836361,airport,faa,no
4D8,IA,FULLER,MILFORD,DICKINSON,43.33339388,-95.1590925,airport,faa,no
4D9,NE,ALMA MUNI,ALMA,HARLAN,40.11247222,-99.34641666,airport,faa,no
4E7,ND,ELLENDALE MUNI,ELLENDALE,DICKEY,46.01633333,-98.51569444,airport,faa,no
4E8,ND,RICHARDTON,RICHARDTON,STARK,46.89581666,-102.35674444,airport,faa,no
4F1,OK,WESTPORT,WESTPORT,PAWNEE,36.22141666,-96.3465,airport,faa,no
4F2,TX,PANOLA COUNTY-SHARPE FLD,CARTHAGE,PANOLA,32.17608333,-94.29880555,airport,faa,no
4F7,AR,KIZER FLD,PRESCOTT,NEVADA,33.80388888,-93.36216666,airport,faa,no
4F8,AR,WILSON,STEPHENS,OUACHITA,33.44319444,-93.05430555,airport,faa,no
4F9,ND,LA MOURE ROTT MUNI,LA MOURE,LA MOURE,46.34728055,-98.28148611,airport,faa,no
4G1,PA,GREENVILLE MUNI,GREENVILLE,MERCER,41.44676644,-80.39119675,airport,faa,no
4G2,NY,HAMBURG,HAMBURG,ERIE,42.7008925,-78.91475694,airport,faa,no
4G3,OH,MILLER,ALLIANCE,MAHONING,40.98175,-81.04213888,airport,faa,no
4G4,OH,YOUNGSTOWN ELSER METRO,YOUNGSTOWN,MAHONING,40.96179527,-80.67732638,airport,faa,no
4G5,OH,MONROE COUNTY,WOODSFIELD,MONROE,39.77905138,-81.10278055,airport,faa,no
4G7,WV,FAIRMONT MUNI-FRANKMAN FLD,FAIRMONT,MARION,39.44754072,-80.16763469,airport,faa,no
4G8,OH,COLUMBIA,COLUMBIA STATION,LORAIN,41.31868019,-81.96044183,airport,faa,no
4I3,OH,KNOX COUNTY,MOUNT VERNON,KNOX,40.32891166,-82.52607055,airport,faa,no
4I9,OH,MORROW COUNTY,MOUNT GILEAD,MORROW,40.52452305,-82.85006111,airport,faa,no
4J1,GA,BRANTLEY COUNTY,NAHUNTA,BRANTLEY,31.20606888,-81.90598611,airport,faa,no
4J2,GA,BERRIEN COUNTY,NASHVILLE,BERRIEN,31.21254458,-83.22525655,airport,faa,no
4J5,GA,QUITMAN BROOKS COUNTY,QUITMAN,BROOKS,30.80518583,-83.58906833,airport,faa,no
4J8,GA,TREUTLEN COUNTY,SOPERTON,TREUTLEN,32.38738888,-82.56338888,airport,faa,no
4K0,AK,PEDRO BAY,PEDRO BAY,LAKE AND PENINSULA,59.79694444,-154.12997222,airport,faa,no
4K5,AK,OUZINKIE,OUZINKIE,KODIAK ISLAND,57.94215516,-152.46499305,airport,faa,no
4K6,IA,BLOOMFIELD MUNI,BLOOMFIELD,DAVIS,40.73210555,-92.42826888,airport,faa,no
4KA,AK,TUNUNAK,TUNUNAK,BETHEL,60.56952777,-165.24627777,airport,faa,no
4KS,KS,WALZ,KIOWA,BARBER,37.04516388,-98.57018055,airport,faa,no
4M0,MI,LAKE ANN AIRWAY ESTATES,TRAVERSE CITY,LEELANAU,44.69615277,-85.91404861,airport,faa,no
4M1,AR,CARROLL COUNTY,BERRYVILLE,CARROLL,36.38134194,-93.62454027,airport,faa,no
4M2,AR,BOONEVILLE MUNI,BOONEVILLE,LOGAN,35.14952633,-93.86338955,airport,faa,no
4M3,AR,CARLISLE MUNI,CARLISLE,LONOKE,34.80822222,-91.71211111,airport,faa,no
4M4,MI,SHADY LAWN FLD,BANNISTER,GRATIOT,43.12858472,-84.38129305,airport,faa,no
4M5,AR,DERMOTT MUNI,DERMOTT,CHICOT,33.48795333,-91.44261138,airport,faa,no
4M7,KY,RUSSELLVILLE-LOGAN COUNTY,RUSSELLVILLE,LOGAN,36.79961111,-86.81091666,airport,faa,no
4M8,AR,CLARENDON MUNI,CLARENDON,MONROE,34.64666888,-91.39472055,airport,faa,no
4M9,AR,CORNING MUNI,CORNING,CLAY,36.40423138,-90.64792638,airport,faa,no
4MB,NH,MOULTONBOROUGH,MOULTONBOROUGH,CARROLL,43.76745702,-71.38762616,airport,faa,no
4N0,MI,NEWMANS,KALAMAZOO,KALAMAZOO,42.28892638,-85.75001055,airport,faa,no
4N1,NJ,GREENWOOD LAKE,WEST MILFORD,PASSAIC,41.12838888,-74.34652777,airport,faa,no
4N2,NY,MIDDLESEX VALLEY,MIDDLESEX,YATES,42.71394444,-77.27205555,airport,faa,no
4N4,ND,LIDGERWOOD MUNI,LIDGERWOOD,RICHLAND,46.08969027,-97.16614444,airport,faa,no
4N7,NY,GREENE,GREENE,CHENANGO,42.30424138,-75.78713722,airport,faa,no
4O1,OK,SNYDER,SNYDER,TILLMAN,34.62772222,-99.014,airport,faa,no
4O4,OK,MC CURTAIN COUNTY RGNL,IDABEL,MC CURTAIN,33.90936111,-94.85936111,airport,faa,no
4O5,OK,CHEROKEE MUNI,CHEROKEE,ALFALFA,36.78830833,-98.35843055,airport,faa,no
4O7,OK,DECKER FLD,MENO,MAJOR,36.37216666,-98.17844444,airport,faa,no
4P3,SD,FLANDREAU MUNI,FLANDREAU,MOODY,44.004055,-96.59317388,airport,faa,no
4R1,MS,I H BASS JR MEML,LUMBERTON,LAMAR,31.01533333,-89.48255555,airport,faa,no
4R3,AL,JACKSON MUNI,JACKSON,CLARKE,31.47055972,-87.89590138,airport,faa,no
4R5,WI,MAJOR GILBERT FLD,LA POINTE,ASHLAND,46.78866666,-90.75872222,airport,faa,no
4R6,ND,MILNOR MUNI,MILNOR,SARGENT,46.25829416,-97.43786861,airport,faa,no
4R7,LA,EUNICE,EUNICE,ACADIA,30.46628388,-92.42379916,airport,faa,no
4R9,AL,JEREMIAH DENTON,DAUPHIN ISLAND,MOBILE,30.26048166,-88.12747305,airport,faa,no
4S1,OR,GOLD BEACH MUNI,GOLD BEACH,CURRY,42.41536111,-124.42491666,airport,faa,no
4S2,OR,KEN JERNSTEDT AIRFIELD,HOOD RIVER,HOOD RIVER,45.67277677,-121.53386386,airport,faa,no
4S4,OR,SKYPORT,CORNELIUS,WASHINGTON,45.58261444,-123.052885,airport,faa,no
4S5,ND,ST THOMAS MUNI,ST THOMAS,PEMBINA,48.6264375,-97.43905555,airport,faa,no
4S6,WA,TIETON STATE,RIMROCK,YAKIMA,46.63755138,-121.12397888,airport,faa,no
4S7,OR,MALIN,MALIN,KLAMATH,42.00113888,-121.39636111,airport,faa,no
4S9,OR,MULINO STATE,PORTLAND-MULINO,CLACKAMAS,45.21655555,-122.59019444,airport,faa,no
4T2,TX,KENNETH COPELAND,FORT WORTH,TARRANT,32.97763172,-97.49229366,airport,faa,no
4U6,MT,CIRCLE TOWN COUNTY,CIRCLE,MC CONE,47.41833333,-105.56088888,airport,faa,no
4U7,MT,WEST FORK LODGE,CONNER,RAVALLI,45.86225,-114.21775,airport,faa,no
4U9,MT,DELL FLIGHT STRIP,DELL,BEAVERHEAD,44.73575,-112.71969444,airport,faa,no
4V0,CO,RANGELY,RANGELY,RIO BLANCO,40.09397222,-108.76305555,airport,faa,no
4V1,CO,SPANISH PEAKS AIRFIELD,WALSENBURG,HUERFANO,37.69652891,-104.78495963,airport,faa,no
4V4,ND,NORTHWOOD MUNI/VINCE FLD,NORTHWOOD,GRAND FORKS,47.7248875,-97.58981111,airport,faa,no
4V6,NE,HAY SPRINGS MUNI,HAY SPRINGS,SHERIDAN,42.68191805,-102.7007375,airport,faa,no
4V8,VT,DEERFIELD VALLEY RGNL,WEST DOVER,WINDHAM,42.92713555,-72.86565361,airport,faa,no
4V9,NE,ANTELOPE COUNTY,NELIGH,ANTELOPE,42.11225,-98.03977777,airport,faa,no
4W0,WA,BANDERA STATE,BANDERA,KING,47.39536888,-121.53647194,airport,faa,no
4W4,NC,WHITFIELD FARMS,HURDLE MILLS,PERSON,36.28347277,-79.07890138,airport,faa,no
4X4,SD,WESSINGTON SPRINGS,WESSINGTON SPRINGS,JERAULD,44.06188888,-98.53219444,airport,faa,no
4Y4,MI,LAKES OF THE NORTH,GAYLORD,ANTRIM,44.91180555,-84.87533888,airport,faa,no
4Y8,MI,PARA FLD,YALE,SANILAC,43.20224444,-82.75388888,airport,faa,no
4Y9,MI,EAGLES LANDING,HARRIETTA,WEXFORD,44.30779722,-85.7716625,airport,faa,no
4Z5,AK,HORSFELD,HORSFELD,SOUTHEAST FAIRBANKS,62.00723333,-141.18211388,airport,faa,no
4Z9,AK,JAKOLOF BAY,JAKOLOF BAY,KENAI-COOK INLET,59.45216055,-151.52238111,airport,faa,no
50D,MI,IRON COUNTY,CRYSTAL FALLS,IRON,46.00907966,-88.27402563,airport,faa,no
50F,TX,BOURLAND FLD,FORT WORTH,PARKER,32.58183333,-97.59077777,airport,faa,no
50G,MI,HOWARD NIXON MEML,CHESANING,SAGINAW,43.18102272,-84.1324455,airport,faa,no
50I,IN,KENTLAND MUNI,KENTLAND,NEWTON,40.75874233,-87.4291253,airport,faa,no
50K,NE,PAWNEE CITY MUNI,PAWNEE CITY,PAWNEE,40.11616666,-96.19486111,airport,faa,no
50R,TX,LOCKHART MUNI,LOCKHART,CALDWELL,29.85033333,-97.67241666,airport,faa,no
50S,ID,PARMA,PARMA,CANYON,43.7787725,-116.93848611,airport,faa,no
51A,GA,HAWKINSVILLE-PULASKI COUNTY,HAWKINSVILLE,PULASKI,32.28366666,-83.43797222,airport,faa,no
51D,ND,EDGELEY MUNI,EDGELEY,LA MOURE,46.34969444,-98.735,airport,faa,no
51G,MI,ALKAY,CLIO,GENESEE,43.14340233,-83.79698125,airport,faa,no
51J,SC,LAKE CITY MUNI CJ EVANS FLD,LAKE CITY,FLORENCE,33.85358055,-79.76811888,airport,faa,no
51K,KS,CEDAR AIR PARK,OLATHE,JOHNSON,38.93109444,-94.88481111,airport,faa,no
51M,MI,OSCODA COUNTY/DENNIS KAUFFMAN MEML,MIO,OSCODA,44.67485361,-84.12204777,airport,faa,no
51R,TX,MADISONVILLE MUNI,MADISONVILLE,MADISON,30.9128375,-95.95199361,airport,faa,no
51Z,AK,MINTO AL WRIGHT,MINTO,YUKON-KOYUKUK,65.14816666,-149.36858333,airport,faa,no
52A,GA,MADISON MUNI,MADISON,MORGAN,33.612125,-83.46044444,airport,faa,no
52F,TX,AERO VALLEY,ROANOKE,DENTON,33.04984472,-97.2322375,airport,faa,no
52I,MI,GROSS,PINCONNING,BAY,43.84683888,-84.01279444,airport,faa,no
52J,SC,LEE COUNTY/BUTTERS FLD,BISHOPVILLE,LEE,34.244485,-80.23603361,airport,faa,no
52K,KS,CHARLES E GRUTZMACHER MUNI,ONAGA,POTTAWATOMIE,39.49795,-96.17508333,airport,faa,no
52S,MT,ST IGNATIUS,ST IGNATIUS,LAKE,47.325,-114.08083333,airport,faa,no
52U,ID,WEATHERBY USFS,ATLANTA,ELMORE,43.82513888,-115.33136111,airport,faa,no
52Y,MN,REMER MUNI,REMER,CASS,47.06800833,-93.91273333,airport,faa,no
53A,GA,DR C P SAVAGE SR,MONTEZUMA,MACON,32.30306333,-84.00746805,airport,faa,no
53K,KS,OSAGE CITY MUNI,OSAGE CITY,OSAGE,38.6335,-95.80180555,airport,faa,no
53T,TX,CANNON FLD,SOMERSET,BEXAR,29.21550277,-98.54962488,airport,faa,no
53U,MT,FERNDALE AIRFIELD,BIGFORK,FLATHEAD,48.06047222,-114.00116666,airport,faa,no
53W,MI,WOODRUFF LAKE,WINN,ISABELLA,43.55460277,-84.97896388,airport,faa,no
54J,FL,DEFUNIAK SPRINGS,DEFUNIAK SPRINGS,WALTON,30.73111111,-86.15377777,airport,faa,no
54T,TX,RWJ AIRPARK,BAYTOWN,CHAMBERS,29.76189444,-94.84793888,airport,faa,no
54W,WI,ALBANY,ALBANY,GREEN,42.71738683,-89.42418386,airport,faa,no
55D,MI,BURGESS FLD,BROWN CITY,SANILAC,43.1805278,-82.98362663,airport,faa,no
55G,MI,ARNOLD FLD,CROSWELL,SANILAC,43.2978,-82.60786388,airport,faa,no
55H,ID,ATLANTA,ATLANTA,ELMORE,43.81351083,-115.13508166,airport,faa,no
55I,WV,SLATE RUN,SPENCER,ROANE,38.77752222,-81.31031941,airport,faa,no
55K,KS,OXFORD MUNI,OXFORD,COWLEY,37.26910833,-97.09335416,airport,faa,no
55M,AR,STAR CITY MUNI,STAR CITY,LINCOLN,33.92641666,-91.86111111,airport,faa,no
55S,WA,PACKWOOD,PACKWOOD,LEWIS,46.60382722,-121.67816694,airport,faa,no
55T,TX,EAGLES AERODROME,CONWAY,CARSON,35.21447222,-101.41102777,airport,faa,no
55Y,MN,RUSHFORD MUNI/ROBERT W BUNKE FLD,RUSHFORD,FILLMORE,43.815825,-91.830095,airport,faa,no
56C,MI,BOULDER CANYON,BELDING,IONIA,43.07568055,-85.26852361,airport,faa,no
56D,OH,WYANDOT COUNTY,UPPER SANDUSKY,WYANDOT,40.88336858,-83.31453155,airport,faa,no
56F,TX,FISHER COUNTY,ROTAN/ROBY,FISHER,32.82430555,-100.41283333,airport,faa,no
56S,OR,SEASIDE MUNI,SEASIDE,CLATSOP,46.01499583,-123.9076575,airport,faa,no
57B,ME,ISLESBORO,ISLESBORO,WALDO,44.30247222,-68.91058333,airport,faa,no
57C,WI,EAST TROY MUNI,EAST TROY,WALWORTH,42.79716138,-88.37261722,airport,faa,no
57D,MI,RAY COMMUNITY,RAY,MACOMB,42.73675155,-82.88883755,airport,faa,no
57S,MT,TROY,TROY,LINCOLN,48.48022055,-115.90350666,airport,faa,no
58C,WI,JANA,EDGERTON,DANE,42.87240277,-89.07556388,airport,faa,no
58J,SC,HUGGINS MEML,TIMMONSVILLE,FLORENCE,34.135575,-79.92141111,airport,faa,no
58M,MD,CLAREMONT,ELKTON,CECIL,39.57416666,-75.86977777,airport,faa,no
58N,PA,REIGLE FLD,PALMYRA,LEBANON,40.28676666,-76.5769875,airport,faa,no
58S,MT,WHITEFISH,WHITEFISH,FLATHEAD,48.40802,-114.29957611,airport,faa,no
58T,TX,HERITAGE CREEK AIRSTRIP,DECATUR,WISE,33.16602777,-97.47988888,airport,faa,no
59B,ME,NEWTON FLD,JACKMAN,SOMERSET,45.63244416,-70.24749472,airport,faa,no
59M,MI,TORCHPORT,EASTPORT,ANTRIM,45.05486863,-85.35689663,airport,faa,no
5A1,OH,NORWALK/HURON COUNTY,NORWALK,HURON,41.24475,-82.55122222,airport,faa,no
5A2,GA,WARNER ROBINS AIR PARK,WARNER ROBINS,HOUSTON,32.56063888,-83.67675,airport,faa,no
5A4,MS,OKOLONA MUNI/RICHARD STOVALL FLD,OKOLONA,CHICKASAW,34.01580555,-88.72619444,airport,faa,no
5A6,MS,WINONA-MONTGOMERY COUNTY,WINONA,MONTGOMERY,33.46498777,-89.7302175,airport,faa,no
5A8,AK,ALEKNAGIK /NEW,ALEKNAGIK,DILLINGHAM,59.28255555,-158.61786666,airport,faa,no
5A9,GA,ROOSEVELT MEML,WARM SPRINGS,MERIWETHER,32.9385,-84.69644444,airport,faa,no
5B1,VT,JOHN H BOYLAN STATE (ISLAND POND),ISLAND POND,ESSEX,44.78997222,-71.82641666,airport,faa,no
5B2,NY,SARATOGA COUNTY,SARATOGA SPRINGS,SARATOGA,43.05072222,-73.86163888,airport,faa,no
5B4,ND,BOWBELLS MUNI,BOWBELLS,BURKE,48.80974944,-102.245445,airport,faa,no
5B5,ND,NAPOLEON MUNI,NAPOLEON,LOGAN,46.49426069,-99.75871186,airport,faa,no
5B6,MA,FALMOUTH AIRPARK,FALMOUTH,BARNSTABLE,41.58558333,-70.54036111,airport,faa,no
5B7,NY,RENSSELAER COUNTY,TROY,RENSSELAER,42.69163888,-73.57997222,airport,faa,no
5B9,NH,DEAN MEML,HAVERHILL,GRAFTON,44.08017283,-72.00775991,airport,faa,no
5BK,AK,BLACK RAPIDS,BLACK RAPIDS,FAIRBANKS NORTH STAR,63.53514638,-145.86088611,airport,faa,no
5C1,TX,BOERNE STAGE AIRFIELD,SAN ANTONIO,BEXAR,29.72321902,-98.69455691,airport,faa,no
5C8,ND,WASHBURN MUNI,WASHBURN,MC LEAN,47.35114888,-101.02589611,airport,faa,no
5CD,AK,CHANDALAR SHELF,CHANDALAR CAMP,YUKON-KOYUKUK,68.06543944,-149.57973916,airport,faa,no
5D2,IA,NORTHWOOD MUNI,NORTHWOOD,WORTH,43.44877777,-93.20166666,airport,faa,no
5D5,MI,WOOLSEY MEML,NORTHPORT,LEELANAU,45.16434686,-85.57547811,airport,faa,no
5D6,OH,PARSONS,CARROLLTON,CARROLL,40.64808055,-81.06952777,airport,faa,no
5D9,OH,BANDIT FLD AIRDROME,CLYDE,SENECA,41.22394305,-82.95769055,airport,faa,no
5E9,OH,PACKER,RADNOR,DELAWARE,40.40797638,-83.21936,airport,faa,no
5F0,LA,ARCADIA-BIENVILLE PARISH,ARCADIA,BIENVILLE,32.53208333,-92.95277777,airport,faa,no
5F1,TX,POST-GARZA COUNTY MUNI,POST,GARZA,33.20330555,-101.33822222,airport,faa,no
5F4,LA,HOMER MUNI,HOMER,CLAIBORNE,32.7885,-93.00364416,airport,faa,no
5F5,LA,BLUEBIRD HILL,KEITHVILLE,CADDO,32.3446,-93.79989722,airport,faa,no
5G0,NY,LE ROY,LE ROY,GENESEE,42.98128138,-77.93524805,airport,faa,no
5G4,WI,EAU CLAIRE LAKES,DRUMMOND,BAYFIELD,46.34870491,-91.49652191,airport,faa,no
5G7,OH,BLUFFTON,BLUFFTON,HANCOCK,40.88544444,-83.86863888,airport,faa,no
5G8,PA,GREENSBURG JEANNETTE RGNL,JEANNETTE,WESTMORELAND,40.37633333,-79.60877777,airport,faa,no
5H4,ND,HARVEY MUNI,HARVEY,WELLS,47.79122222,-99.93175,airport,faa,no
5HO,AK,HOPE,HOPE,KENAI PENINSULA,60.90725277,-149.62281111,airport,faa,no
5I2,IN,FLORA MUNI,FLORA,CARROLL,40.53975833,-86.54833305,airport,faa,no
5I4,IN,SHERIDAN,SHERIDAN,HAMILTON,40.17815555,-86.21706944,airport,faa,no
5I6,IN,GALVESTON,GALVESTON,CASS,40.584205,-86.25694027,airport,faa,no
5J5,SC,HOLLY HILL,HOLLY HILL,ORANGEBURG,33.301525,-80.39308055,airport,faa,no
5J9,SC,TWIN CITY,LORIS,HORRY,34.08841666,-78.86491666,airport,faa,no
5K0,KS,BRESSLER FLD,BIRD CITY,CHEYENNE,39.74413888,-101.55647222,airport,faa,no
5K1,IL,ZELMER MEML AIRPARK INC,PALMYRA,MACOUPIN,39.4200475,-89.9912175,airport,faa,no
5K2,KS,TRIBUNE MUNI,TRIBUNE,GREELEY,38.45146333,-101.75007916,airport,faa,no
5K4,IL,SCHUY-RUSH,RUSHVILLE,SCHUYLER,40.11754666,-90.59040527,airport,faa,no
5KS,AK,KASILOF,KASILOF,KENAI PENINSULA,60.35052083,-151.26285638,airport,faa,no
5L0,ND,LAKOTA MUNI,LAKOTA,NELSON,48.02891666,-98.32575,airport,faa,no
5M0,AL,HARTSELLE/MORGAN COUNTY RGNL,HARTSELLE,MORGAN,34.40822222,-86.93294444,airport,faa,no
5M1,AR,DEWITT MUNI/WHITCOMB FLD,DE WITT,ARKANSAS,34.26227777,-91.3075,airport,faa,no
5M4,AR,FORDYCE MUNI,FORDYCE,DALLAS,33.84579222,-92.36552888,airport,faa,no
5M5,AR,CRYSTAL LAKE,DECATUR,BENTON,36.34361111,-94.44483333,airport,faa,no
5M6,MI,SUGAR SPRINGS AIRPARK,GLADWIN,GLADWIN,44.14037083,-84.436975,airport,faa,no
5M8,AR,GURDON LOWE FLD,GURDON,CLARK,33.92377777,-93.16813888,airport,faa,no
5MO,MO,APPLEGATE,QUEEN CITY,SCHUYLER,40.39194583,-92.56477083,airport,faa,no
5N2,WI,PRENTICE,PRENTICE,PRICE,45.53833236,-90.27633486,airport,faa,no
5N4,ND,SKY HAVEN,ENDERLIN,RANSOM,46.626862,-97.62023219,airport,faa,no
5N7,MI,HAT FLD,NUNICA,OTTAWA,43.09719055,-86.09461861,airport,faa,no
5N8,ND,CASSELTON ROBERT MILLER RGNL,CASSELTON,CASS,46.85394444,-97.20786111,airport,faa,no
5NK,AK,NAKNEK,NAKNEK,BRISTOL BAY,58.73466286,-157.02521041,airport,faa,no
5NN,AK,NONDALTON,NONDALTON,LAKE AND PENINSULA,59.98023027,-154.83917472,airport,faa,no
5O1,OK,VICI MUNI,VICI,DEWEY,36.14105555,-99.30336111,airport,faa,no
5P2,SD,MC LAUGHLIN MUNI,MC LAUGHLIN,CORSON,45.7968175,-100.78425777,airport,faa,no
5P5,SD,PRESHO MUNI,PRESHO,LYMAN,43.90599722,-100.03668055,airport,faa,no
5QC,AK,QUARTZ CREEK / KOUGAROK,QUARTZ CREEK,NOME,65.40593305,-164.65572472,airport,faa,no
5R1,AL,ROY WILCOX,CHATOM,WASHINGTON,31.45166688,-88.19442663,airport,faa,no
5R2,MS,OCEAN SPRINGS,OCEAN SPRINGS,JACKSON,30.38944444,-88.75344444,airport,faa,no
5R4,AL,HOLK FLD AT FOLEY MUNI,FOLEY,BALDWIN,30.42766666,-87.70097222,airport,faa,no
5R7,AL,ROY E RAY,BAYOU LA BATRE,MOBILE,30.45525,-88.21119444,airport,faa,no
5R8,LA,DE QUINCY INDUSTRIAL AIRPARK,DE QUINCY,CALCASIEU,30.44108333,-93.47361111,airport,faa,no
5S0,OR,OAKRIDGE STATE,OAKRIDGE,LANE,43.75255555,-122.50452777,airport,faa,no
5S1,OR,GEORGE FELT,ROSEBURG,DOUGLAS,43.21544444,-123.40438888,airport,faa,no
5S2,OR,CRESCENT LAKE STATE,CRESCENT LAKE,KLAMATH,43.53279002,-121.95025891,airport,faa,no
5S4,OR,TOLEDO STATE,TOLEDO,LINCOLN,44.60102777,-123.93961111,airport,faa,no
5S5,OR,LAKE BILLY CHINOOK,CULVER,JEFFERSON,44.51928472,-121.32060027,airport,faa,no
5S6,OR,CAPE BLANCO STATE,SIXES,CURRY,42.85803566,-124.51780916,airport,faa,no
5T4,SD,HERREID MUNI,HERREID,CAMPBELL,45.84829166,-100.07397777,airport,faa,no
5T9,TX,MAVERICK COUNTY MEML INTL,EAGLE PASS,MAVERICK,28.85709277,-100.51346777,airport,faa,no
5U0,MT,DENTON,DENTON,FERGUS,47.32086111,-109.94191666,airport,faa,no
5U1,MT,DUTTON,DUTTON,TETON,47.84719444,-111.69827777,airport,faa,no
5U5,MT,FAIRFIELD,FAIRFIELD,TETON,47.63383333,-111.98119444,airport,faa,no
5U6,MT,FAIRVIEW,FAIRVIEW,RICHLAND,47.86252777,-104.07141666,airport,faa,no
5U7,MT,FORT SMITH LANDING STRIP,FORT SMITH,BIG HORN,45.3207925,-107.93122194,airport,faa,no
5U8,MT,GERALDINE,GERALDINE,CHOUTEAU,47.596455,-110.26591333,airport,faa,no
5V4,CO,CALHAN,CALHAN,EL PASO,39.04830555,-104.293,airport,faa,no
5V5,NM,SHIPROCK AIRSTRIP,SHIPROCK,SAN JUAN,36.697665,-108.70097277,airport,faa,no
5V8,SD,KADOKA MUNI,KADOKA,JACKSON,43.83332611,-101.49708805,airport,faa,no
5W1,WA,WILSON CREEK,WILSON CREEK,GRANT,47.41848333,-119.10908333,airport,faa,no
5W4,NC,P K AIRPARK,RAEFORD,HOKE,35.01985972,-79.19100388,airport,faa,no
5W5,NC,SOUTHERN WAKE RGNL,RALEIGH,WAKE,35.62023472,-78.70013611,airport,faa,no
5Y1,MI,ALBERT J LINDBERG,HESSEL,MACKINAC,46.03542916,-84.41769722,airport,faa,no
5Y2,MI,HOUGHTON LAKE STATE,HOUGHTON LAKE HEIGHTS,ROSCOMMON,44.33123611,-84.79098611,airport,faa,no
5Y3,WI,GUTZMER'S TWIN OAKS,WHITEWATER,JEFFERSON,42.85355388,-88.75981083,airport,faa,no
5Y7,MI,HANLEY FLD,MUNISING,ALGER,46.35411666,-86.62099027,airport,faa,no
5Z5,AK,KANTISHNA,KANTISHNA,DENALI,63.54098611,-150.99507777,airport,faa,no
60C,WI,ELROY,ELROY,JUNEAU,43.70617066,-90.25779738,airport,faa,no
60D,MI,BAUER FLD,REESE,TUSCOLA,43.43847552,-83.634153,airport,faa,no
60F,TX,SEYMOUR MUNI,SEYMOUR,BAYLOR,33.64851666,-99.26130555,airport,faa,no
60G,MI,SKYWAY ESTATES,EATON RAPIDS,EATON,42.58380833,-84.65148055,airport,faa,no
60J,NC,ODELL WILLIAMSON MUNI,OCEAN ISLE BEACH,BRUNSWICK,33.90932,-78.43468555,airport,faa,no
60M,MA,SPENCER,SPENCER,WORCESTER,42.2905,-71.96469444,airport,faa,no
60R,TX,NAVASOTA MUNI,NAVASOTA,GRIMES,30.36713888,-96.11294444,airport,faa,no
61A,AL,CAMDEN MUNI,CAMDEN,WILCOX,31.97975,-87.33911111,airport,faa,no
61C,WI,FORT ATKINSON MUNI,FORT ATKINSON,JEFFERSON,42.96320722,-88.81762611,airport,faa,no
61D,MI,VIRGIL L WILLIAMS PLAINWELL MUNI,PLAINWELL,ALLEGAN,42.467791,-85.64801344,airport,faa,no
61K,KS,SEDAN CITY,SEDAN,CHAUTAUQUA,37.14838527,-96.18526972,airport,faa,no
61R,TX,NEWTON MUNI,NEWTON,NEWTON,30.88405555,-93.74247222,airport,faa,no
61S,OR,COTTAGE GROVE STATE,COTTAGE GROVE,LANE,43.80407052,-123.03211616,airport,faa,no
62C,WI,CINDY GUNTLY MEML,FRANKSVILLE,RACINE,42.81138886,-88.09408933,airport,faa,no
62D,OH,WARREN,WARREN,TRUMBULL,41.26702777,-80.92736111,airport,faa,no
62K,KS,SENECA MUNI,SENECA,NEMAHA,39.84761111,-96.11691666,airport,faa,no
62S,OR,CHRISTMAS VALLEY,CHRISTMAS VALLEY,LAKE,43.23625,-120.66469444,airport,faa,no
63B,ME,LIMINGTON-HARMON,LIMINGTON,YORK,43.76302777,-70.67247222,airport,faa,no
63C,WI,ADAMS COUNTY LEGION FLD,FRIENDSHIP (ADAMS),ADAMS,43.96058808,-89.78864444,airport,faa,no
63F,TX,STANTON MUNI,STANTON,MARTIN,32.17358305,-101.82247222,airport,faa,no
63K,KS,HILLSIDE,STILWELL,JOHNSON,38.82125,-94.60952777,airport,faa,no
63M,MO,HERMANN MUNI,HERMANN,GASCONADE,38.70516805,-91.49055416,airport,faa,no
63S,WA,COLVILLE MUNI,COLVILLE,STEVENS,48.54416138,-117.88349,airport,faa,no
63Y,MN,TYLER MUNI,TYLER,LINCOLN,44.28829027,-96.15095555,airport,faa,no
64G,ND,PAGE RGNL,PAGE,CASS,47.17019444,-97.48191666,airport,faa,no
64I,IN,LEE BOTTOM,HANOVER,JEFFERSON,38.63144166,-85.44341944,airport,faa,no
64S,OR,PROSPECT STATE,PROSPECT,JACKSON,42.74258461,-122.48890013,airport,faa,no
64V,NE,WALLACE MUNI,WALLACE,LINCOLN,40.83222444,-101.16404472,airport,faa,no
65B,ME,LUBEC MUNI,LUBEC,WASHINGTON,44.83655555,-67.02697222,airport,faa,no
65G,MI,MAPLE GROVE,FOWLERVILLE,LIVINGSTON,42.71805822,-84.06068027,airport,faa,no
65J,GA,WRENS MEML,WRENS,JEFFERSON,33.22277777,-82.3845,airport,faa,no
65S,ID,BOUNDARY COUNTY,BONNERS FERRY,BOUNDARY,48.72597222,-116.29516666,airport,faa,no
66B,ME,GILLESPIE FLD,MEDDYBEMPS,WASHINGTON,45.02962222,-67.36596666,airport,faa,no
66G,MI,WM 'TINY' ZEHNDER FLD,FRANKENMUTH,SAGINAW,43.31435833,-83.71006388,airport,faa,no
66R,TX,ROBERT R WELLS JR,COLUMBUS,COLORADO,29.64151111,-96.51595555,airport,faa,no
66S,ID,CAVANAUGH BAY,COOLIN,BONNER,48.51866666,-116.82219444,airport,faa,no
66V,UT,BLUFF,BLUFF,SAN JUAN,37.255,-109.63302777,airport,faa,no
66Y,MS,DIAMONDHEAD,DIAMONDHEAD,HANCOCK,30.36297944,-89.38765416,airport,faa,no
67A,AL,FORT DEPOSIT-LOWNDES COUNTY,FORT DEPOSIT,LOWNDES,31.97237083,-86.59164138,airport,faa,no
67L,NV,MESQUITE,MESQUITE,CLARK,36.83313888,-114.05588888,airport,faa,no
67R,TX,RIO GRANDE CITY MUNI,RIO GRANDE CITY,STARR,26.42428333,-98.84608055,airport,faa,no
67S,ID,PRIEST LAKE USFS,NORDMAN,BONNER,48.574,-116.95858333,airport,faa,no
67T,TX,OLD HOPPE PLACE,AGUA DULCE,NUECES,27.79970555,-97.85090277,airport,faa,no
68C,WI,CENTRAL COUNTY,IOLA,WAUPACA,44.50477702,-89.02580083,airport,faa,no
68D,OR,REDS HORSE RANCH USFS,ENTERPRISE,WALLOWA,45.34455972,-117.62648333,airport,faa,no
68F,TX,TEAGUE MUNI,TEAGUE,FREESTONE,31.66175,-96.3105,airport,faa,no
68R,MI,HAMP,ELWELL,GRATIOT,43.39948611,-84.80124305,airport,faa,no
68S,WA,DAVENPORT,DAVENPORT,LINCOLN,47.65206027,-118.17377305,airport,faa,no
68Y,MN,WELLS MUNI,WELLS,FARIBAULT,43.74122083,-93.777175,airport,faa,no
69G,MI,RICHMOND FLD,GREGORY,LIVINGSTON,42.44208333,-84.06436111,airport,faa,no
69K,KS,WAMEGO MUNI,WAMEGO,POTTAWATOMIE,39.19785833,-96.25894027,airport,faa,no
69N,PA,SLATINGTON,SLATINGTON,LEHIGH,40.76359405,-75.60485241,airport,faa,no
69S,WA,AVEY FLD,LAURIER,FERRY,48.99837944,-118.22259861,airport,faa,no
69V,UT,HUNTINGTON MUNI,HUNTINGTON,EMERY,39.36122472,-110.91698055,airport,faa,no
6A1,GA,BUTLER MUNI,BUTLER,TAYLOR,32.56823583,-84.2466875,airport,faa,no
6A2,GA,GRIFFIN-SPALDING COUNTY,GRIFFIN,SPALDING,33.22697222,-84.27494444,airport,faa,no
6A4,TN,JOHNSON COUNTY,MOUNTAIN CITY,JOHNSON,36.41784527,-81.82513388,airport,faa,no
6A6,SD,KIMBALL MUNI,KIMBALL,BRULE,43.75544722,-98.97880138,airport,faa,no
6A8,AK,ALLAKAKET,ALLAKAKET,YUKON-KOYUKUK,66.55183333,-152.62216666,airport,faa,no
6AK,AK,RAINY PASS LODGE,RAINY PASS,KUSKOKWIM,62.08414194,-152.71752472,airport,faa,no
6B0,VT,MIDDLEBURY STATE,MIDDLEBURY,ADDISON,43.98647194,-73.09555166,airport,faa,no
6B4,NY,FRANKFORT-HIGHLAND,UTICA/FRANKFORT,HERKIMER,43.01610694,-75.16954166,airport,faa,no
6B6,MA,MINUTE MAN AIR FLD,STOW,MIDDLESEX,42.46038541,-71.51801188,airport,faa,no
6B9,NY,SKANEATELES AERO DROME,SKANEATELES,ONONDAGA,42.91395972,-76.44076416,airport,faa,no
6CM,OH,CHAPMAN MEML FLD,CENTERBURG,KNOX,40.29545,-82.72997222,airport,faa,no
6D1,MN,BROOTEN MUNI/JOHN O BOHMER FLD,BROOTEN,STEARNS,45.49751333,-95.10261916,airport,faa,no
6D3,ND,MADDOCK MUNI,MADDOCK,BENSON,47.9802625,-99.52695972,airport,faa,no
6D6,MI,GREENVILLE MUNI,GREENVILLE,MONTCALM,43.14213888,-85.25386111,airport,faa,no
6D7,OH,DESHLER MUNI LANDING STRIP,DESHLER,WOOD,41.21544444,-83.87086944,airport,faa,no
6D9,MI,IOSCO COUNTY,EAST TAWAS,IOSCO,44.31283333,-83.42230555,airport,faa,no
6E5,SD,WILDER,DESMET,KINGSBURY,44.4330475,-97.55816,airport,faa,no
6F1,OK,TALIHINA MUNI,TALIHINA,LATIMER,34.70777138,-95.07378583,airport,faa,no
6F7,TX,MANNING FLD,JEFFERSON,MARION,32.827,-94.35452777,airport,faa,no
6G1,PA,TITUSVILLE,TITUSVILLE,VENANGO,41.60880555,-79.74133333,airport,faa,no
6G4,OH,WYNKOOP,MOUNT VERNON,KNOX,40.36506222,-82.49571805,airport,faa,no
6G5,OH,BARNESVILLE/BRADFIELD,BARNESVILLE,BELMONT,40.002415,-81.19182388,airport,faa,no
6G6,PA,COVE VALLEY,WILLIAMSBURG,BLAIR,40.45451694,-78.23806638,airport,faa,no
6G8,MI,BROOKLYN,BROOKLYN,JACKSON,42.09421388,-84.24091805,airport,faa,no
6H4,MI,VAN WAGNEN,NAPOLEON,JACKSON,42.15576388,-84.33431944,airport,faa,no
6H8,ND,HAZELTON MUNI,HAZELTON,EMMONS,46.48221666,-100.26373333,airport,faa,no
6I2,KY,LEBANON SPRINGFIELD/GEORGE HOERTER FLD,SPRINGFIELD,WASHINGTON,37.6334775,-85.24183694,airport,faa,no
6I4,IN,BOONE COUNTY,LEBANON,BOONE,40.00726361,-86.44055527,airport,faa,no
6J0,SC,LEXINGTON COUNTY,PELION,LEXINGTON,33.79463888,-81.24586111,airport,faa,no
6J2,SC,ST GEORGE,ST GEORGE,DORCHESTER,33.1955,-80.50847222,airport,faa,no
6J4,SC,SALUDA COUNTY,SALUDA,SALUDA,33.92679305,-81.79462777,airport,faa,no
6J6,SC,EDGEFIELD COUNTY,TRENTON,EDGEFIELD,33.73686111,-81.81875,airport,faa,no
6J7,SC,BRANHAMS,DARLINGTON,DARLINGTON,34.28152777,-79.92761111,airport,faa,no
6J8,FL,OAK TREE LANDING,HIGH SPRINGS,ALACHUA,29.72026388,-82.66520833,airport,faa,no
6K2,MO,SHELBY COUNTY,SHELBYVILLE,SHELBY,39.81256666,-92.05021666,airport,faa,no
6K3,NE,CREIGHTON MUNI,CREIGHTON,KNOX,42.47127777,-97.88475,airport,faa,no
6K4,OK,FAIRVIEW MUNI,FAIRVIEW,MAJOR,36.29119444,-98.47580555,airport,faa,no
6K5,OR,SISTERS EAGLE AIR,SISTERS,DESCHUTES,44.30445833,-121.53909722,airport,faa,no
6K7,IA,GRUNDY CENTER MUNI,GRUNDY CENTER,GRUNDY,42.35055972,-92.84161388,airport,faa,no
6K8,AK,TOK JUNCTION,TOK,SOUTHEAST FAIRBANKS,63.3295143,-142.95368402,airport,faa,no
6K9,IA,KEOSAUQUA MUNI,KEOSAUQUA,VAN BUREN,40.73475,-91.94878305,airport,faa,no
6KS,KS,BUTLER AIRPARK,ROSE HILL,BUTLER,37.5592945,-97.064874,airport,faa,no
6L3,ND,LISBON MUNI,LISBON,RANSOM,46.44697333,-97.72821555,airport,faa,no
6L4,WV,LOGAN COUNTY,LOGAN,LOGAN,37.85568611,-81.91588333,airport,faa,no
6L5,ND,WISHEK MUNI,WISHEK,MC INTOSH,46.24962916,-99.53965833,airport,faa,no
6M0,AR,HAZEN MUNI DAVID DUCH FLD,HAZEN,PRAIRIE,34.75921388,-91.63804583,airport,faa,no
6M2,AR,HORSESHOE BEND,HORSESHOE BEND,IZARD,36.22136138,-91.75547388,airport,faa,no
6M6,MO,LEWIS COUNTY RGNL,MONTICELLO,LEWIS,40.12917638,-91.67826944,airport,faa,no
6M7,AR,MARIANNA/LEE COUNTY-STEVE EDWARDS FLD,MARIANNA,LEE,34.78275,-90.80997222,airport,faa,no
6M8,AR,MARKED TREE MUNI,MARKED TREE,POINSETT,35.53309027,-90.40008888,airport,faa,no
6P3,WI,WAUNAKEE,WAUNAKEE,DANE,43.17872944,-89.45128416,airport,faa,no
6P7,PA,MCVILLE,FREEPORT,ARMSTRONG,40.7345625,-79.59564583,airport,faa,no
6R1,LA,WELSH,WELSH,JEFFERSON DAVIS,30.24185455,-92.83073833,airport,faa,no
6R3,TX,CLEVELAND MUNI,CLEVELAND,LIBERTY,30.35644444,-95.00802777,airport,faa,no
6R5,TX,ALVIN AIRPARK,ALVIN,BRAZORIA,29.41475,-95.28891666,airport,faa,no
6R6,TX,TERRELL COUNTY,DRYDEN,TERRELL,30.04647222,-102.21316666,airport,faa,no
6R7,AK,OLD HARBOR,OLD HARBOR,KODIAK ISLAND,57.21830555,-153.26983194,airport,faa,no
6S0,MT,BIG TIMBER AT HOWARD FLD,BIG TIMBER,SWEET GRASS,45.80647725,-109.97825658,airport,faa,no
6S1,MT,BRIDGER MUNI,BRIDGER,CARBON,45.29161388,-108.92569888,airport,faa,no
6S2,OR,FLORENCE MUNI,FLORENCE,LANE,43.98281833,-124.11136722,airport,faa,no
6S3,MT,WOLTERMANN MEML,COLUMBUS,STILLWATER,45.63052388,-109.239215,airport,faa,no
6S4,OR,DAVIS,GATES,LINN,44.74588888,-122.42138888,airport,faa,no
6S6,OR,POWERS,POWERS,COOS,42.86936111,-124.05902777,airport,faa,no
6S8,MT,LAUREL MUNI,LAUREL,YELLOWSTONE,45.70517822,-108.76077111,airport,faa,no
6S9,WA,STEHEKIN STATE,STEHEKIN,CHELAN,48.34577777,-120.72080555,airport,faa,no
6U5,MT,HINSDALE,HINSDALE,VALLEY,48.38802055,-107.08328894,airport,faa,no
6U6,MT,HOGELAND,HOGELAND,BLAINE,48.86013888,-108.66094444,airport,faa,no
6U7,MT,HYSHAM,HYSHAM,TREASURE,46.29347222,-107.19330555,airport,faa,no
6V0,SD,EDGEMONT MUNI,EDGEMONT,FALL RIVER,43.295,-103.84298055,airport,faa,no
6V4,SD,WALL MUNI,WALL,PENNINGTON,43.99967055,-102.2542425,airport,faa,no
6V5,SD,BISON MUNI,BISON,PERKINS,45.51833333,-102.46783333,airport,faa,no
6W0,WV,WADE F MALEY FLD,SHINNSTON,HARRISON,39.40611111,-80.27686111,airport,faa,no
6W4,NC,YANCEYVILLE MUNI,YANCEYVILLE,CASWELL,36.39977777,-79.39269444,airport,faa,no
6X0,TX,TARRANT FLD,MOUNT SELMAN,CHEROKEE,32.0975,-95.29486111,airport,faa,no
6X8,TX,VULTURES ROW,SANGER,DENTON,33.34,-97.10305555,airport,faa,no
6Y0,MI,MOORESTOWN AIRPARK,MOORESTOWN,MISSAUKEE,44.46298322,-84.99659808,airport,faa,no
6Y1,MI,BOIS BLANC ISLAND,BOIS BLANC ISLAND,MACKINAC,45.76629766,-84.50381394,airport,faa,no
6Y3,MI,NORTH FOX ISLAND,NORTH FOX ISLAND,LEELANAU,45.48209722,-85.78083333,airport,faa,no
6Y4,MI,VAN EFFEN FLD,ROCK,MARQUETTE,46.0520625,-87.25829027,airport,faa,no
6Y5,MI,TWO HEARTED AIRSTRIP,NEWBERRY,LUCE,46.69334583,-85.42209583,airport,faa,no
6Y6,MI,ST HELEN,ST HELEN,ROSCOMMON,44.36800347,-84.40215555,airport,faa,no
6Y8,MI,WELKE,BEAVER ISLAND,CHARLEVOIX,45.72129261,-85.51972622,airport,faa,no
6Y9,MI,PRICKETT-GROOMS FLD,SIDNAW,HOUGHTON,46.50865277,-88.70584722,airport,faa,no
6Z6,IA,NASH FLD INDIANOLA,INDIANOLA,WARREN,41.30385277,-93.56749027,airport,faa,no
70D,WV,TITUS FLD,ARTHURDALE,PRESTON,39.49888888,-79.85313888,airport,faa,no
70J,GA,CAIRO-GRADY COUNTY,CAIRO,GRADY,30.88797222,-84.15472222,airport,faa,no
70S,WA,MEAD FLYING SERVICE,MEAD,SPOKANE,47.78718666,-117.35818277,airport,faa,no
70T,TX,FAIRVIEW,RHOME,WISE,33.09444444,-97.42722222,airport,faa,no
71J,AL,OZARK/BLACKWELL FLD,OZARK,DALE,31.431812,-85.62053391,airport,faa,no
71K,KS,WESTPORT,WICHITA,SEDGWICK,37.64769444,-97.38369444,airport,faa,no
71N,PA,SUNBURY,SUNBURY,NORTHUMBERLAND,40.89175194,-76.77885333,airport,faa,no
72F,TX,THROCKMORTON MUNI,THROCKMORTON,THROCKMORTON,33.18000416,-99.1497625,airport,faa,no
72K,KS,WESTPORT AUXILIARY,WICHITA,SEDGWICK,37.60422222,-97.35886111,airport,faa,no
72S,WA,ROSALIA MUNI,ROSALIA,WHITMAN,47.23656783,-117.42137855,airport,faa,no
73C,WI,LANCASTER MUNI,LANCASTER,GRANT,42.78252777,-90.68108333,airport,faa,no
73F,TX,WINGS FOR CHRIST INTL FLT ACADEMY,WACO,MC LENNAN,31.62377638,-97.0224975,airport,faa,no
73G,MI,CHERRY FLD,NUNICA,OTTAWA,43.072615,-86.029636,airport,faa,no
73S,WA,WILLARD FLD,TEKOA,WHITMAN,47.23553388,-117.04374972,airport,faa,no
74N,PA,BENDIGO,TOWER CITY,DAUPHIN,40.55899583,-76.5597125,airport,faa,no
74P,NV,CALVADA MEADOWS,PAHRUMP,NYE,36.27205925,-115.9952593,airport,faa,no
74R,TX,HORIZON,SAN ANTONIO,BEXAR,29.28458333,-98.49830555,airport,faa,no
74S,WA,ANACORTES,ANACORTES,SKAGIT,48.49850694,-122.66246805,airport,faa,no
74T,TX,HICKS,PONDER,DENTON,33.18301111,-97.2546125,airport,faa,no
74V,UT,ROOSEVELT MUNI,ROOSEVELT,DUCHESNE,40.27841388,-110.05137722,airport,faa,no
75C,ID,OROGRANDE,OROGRANDE,IDAHO,45.72944444,-115.52777777,airport,faa,no
75G,MI,ROSSETTIE,MANCHESTER,WASHTENAW,42.19509722,-84.03086111,airport,faa,no
75J,GA,TURNER COUNTY,ASHBURN,TURNER,31.68761111,-83.63294444,airport,faa,no
75K,MO,BETHANY MEML,BETHANY,HARRISON,40.27683333,-94.00741666,airport,faa,no
76A,AR,EFS,SHOFFNER,JACKSON,35.4640035,-91.2300235,airport,faa,no
76F,TX,VAN ZANDT COUNTY RGNL,WILLS POINT,VAN ZANDT,32.68141666,-95.98413888,airport,faa,no
76G,MI,MARINE CITY,MARINE CITY,ST CLAIR,42.72137916,-82.59626527,airport,faa,no
76N,PA,SKYHAVEN,TUNKHANNOCK,WYOMING,41.52816388,-75.94588055,airport,faa,no
76T,TX,BISHOP,DECATUR,WISE,33.26916666,-97.45186111,airport,faa,no
76V,WY,THOMAS MEML,GLENDO,PLATTE,42.52002777,-105.02002777,airport,faa,no
76Z,AK,NAKEEN,NAKEEN,BRISTOL BAY,58.927605,-157.04715222,airport,faa,no
77F,TX,WINTERS MUNI,WINTERS,RUNNELS,31.94719419,-99.98585005,airport,faa,no
77G,MI,MARLETTE TOWNSHIP,MARLETTE,SANILAC,43.31183305,-83.09092027,airport,faa,no
77S,OR,HOBBY FLD,CRESWELL,LANE,43.93075,-123.00666666,airport,faa,no
78A,NC,SWAN CREEK,JONESVILLE,YADKIN,36.20283711,-80.867697,airport,faa,no
78I,IN,PAM'S PLACE,EMINENCE,PUTNAM,39.50164722,-86.6885018,airport,faa,no
78R,TX,SAN AUGUSTINE COUNTY,SAN AUGUSTINE,SAN AUGUSTINE,31.54043055,-94.17006666,airport,faa,no
78Y,MO,RANKIN,MARYVILLE,NODAWAY,40.33169444,-94.83469444,airport,faa,no
79C,WI,BRENNAND,NEENAH,WINNEBAGO,44.15944583,-88.56180391,airport,faa,no
79D,WV,PHILIPPI/BARBOUR COUNTY RGNL,PHILIPPI,BARBOUR,39.16619027,-80.06234861,airport,faa,no
79J,AL,SOUTH ALABAMA RGNL AT BILL BENTON FLD,ANDALUSIA,COVINGTON,31.30836111,-86.39222222,airport,faa,no
79S,MT,FORT BENTON,FORT BENTON,CHOUTEAU,47.84418888,-110.63686111,airport,faa,no
7A0,AL,GREENSBORO MUNI,GREENSBORO,HALE,32.68154027,-87.66206916,airport,faa,no
7A3,AL,LANETT RGNL,LANETT,CHAMBERS,32.81184333,-85.22948638,airport,faa,no
7A5,AL,ROANOKE MUNI ENLOE,ROANOKE,RANDOLPH,33.12967777,-85.37221527,airport,faa,no
7A6,AL,STEVENSON,STEVENSON,JACKSON,34.88627638,-85.80328888,airport,faa,no
7A8,NC,AVERY COUNTY/MORRISON FLD,SPRUCE PINE,AVERY,35.94536111,-81.99622222,airport,faa,no
7AK,AK,AKUTAN,AKUTAN,ALEUTIANS EAST,54.14461111,-165.60410833,airport,faa,no
7B2,MA,NORTHAMPTON,NORTHAMPTON,HAMPSHIRE,42.32800972,-72.61124027,airport,faa,no
7B3,NH,HAMPTON AIRFIELD,HAMPTON,ROCKINGHAM,42.96126805,-70.83015416,airport,faa,no
7B4,OH,MILLER FARM LANDING STRIP,BALTIMORE,FAIRFIELD,39.88450805,-82.58905111,airport,faa,no
7B6,CT,SKYLARK AIRPARK,WAREHOUSE POINT,HARTFORD,41.92841666,-72.57638888,airport,faa,no
7B9,CT,ELLINGTON,ELLINGTON,TOLLAND,41.92541666,-72.45711111,airport,faa,no
7D3,MI,BALDWIN MUNI,BALDWIN,LAKE,43.87553563,-85.8420825,airport,faa,no
7D8,OH,GATES,GARRETTSVILLE,GEAUGA,41.35113611,-81.09792361,airport,faa,no
7D9,OH,GERMACK,GENEVA,ASHTABULA,41.77783222,-80.90397972,airport,faa,no
7F3,TX,CADDO MILLS MUNI,CADDO MILLS,HUNT,33.03622222,-96.24313888,airport,faa,no
7F7,TX,CLIFTON MUNI/ISENHOWER FLD,CLIFTON,BOSQUE,31.81713333,-97.56956944,airport,faa,no
7G0,NY,LEDGEDALE AIRPARK,BROCKPORT,MONROE,43.18119444,-77.9155,airport,faa,no
7G1,WV,HERRON,NEW CUMBERLAND,HANCOCK,40.53311111,-80.54111111,airport,faa,no
7G2,ND,MC CLUSKY MUNI,MC CLUSKY,SHERIDAN,47.46204722,-100.48722916,airport,faa,no
7G8,OH,GEAUGA COUNTY,MIDDLEFIELD,GEAUGA,41.44959555,-81.06293444,airport,faa,no
7G9,SD,CANTON MUNI,CANTON,LINCOLN,43.309,-96.57121666,airport,faa,no
7I2,IN,REESE,MUNCIE,DELAWARE,40.15523888,-85.31894583,airport,faa,no
7I4,IN,ORLEANS,ORLEANS,ORANGE,38.65838694,-86.44304416,airport,faa,no
7K5,ND,KENMARE MUNI,KENMARE,WARD,48.6676125,-102.04800277,airport,faa,no
7K7,SD,GRAHAM FLD,NORTH SIOUX CITY,UNION,42.54078611,-96.48551111,airport,faa,no
7KA,AK,TATITLEK,TATITLEK,VALDEZ-CORDOVA,60.87238888,-146.69116666,airport,faa,no
7L2,ND,LINTON MUNI,LINTON,EMMONS,46.22064088,-100.24562386,airport,faa,no
7L8,IN,POST-AIR,INDIANAPOLIS,MARION,39.75004277,-86.01387111,airport,faa,no
7M1,AR,MC GEHEE MUNI,MC GEHEE,DESHA,33.62022111,-91.36484055,airport,faa,no
7M2,AR,MOUNTAIN VIEW WILCOX MEML FLD,MOUNTAIN VIEW,STONE,35.86448027,-92.09033861,airport,faa,no
7M3,AR,BEARCE,MOUNT IDA,MONTGOMERY,34.52908111,-93.52942416,airport,faa,no
7M4,AR,OSCEOLA MUNI,OSCEOLA,MISSISSIPPI,35.69113888,-90.01011111,airport,faa,no
7M5,AR,OZARK/FRANKLIN COUNTY,OZARK,FRANKLIN,35.51069583,-93.8393075,airport,faa,no
7M6,AR,PARIS MUNI,PARIS /SUBIACO/,LOGAN,35.29911527,-93.68161388,airport,faa,no
7M7,AR,PIGGOTT MUNI,PIGGOTT,CLAY,36.37820555,-90.16624166,airport,faa,no
7M8,AR,RECTOR,RECTOR,CLAY,36.25006305,-90.31954555,airport,faa,no
7M9,AR,SALEM,SALEM,FULTON,36.35590805,-91.83095472,airport,faa,no
7ME,ME,FORT KENT MUNI,FORT KENT,AROOSTOOK,47.20345277,-68.57942083,airport,faa,no
7MI,MI,FLUGPLATZ,LEXINGTON,SANILAC,43.34174305,-82.54828472,airport,faa,no
7N1,NY,CORNING-PAINTED POST,CORNING,STEUBEN,42.18010027,-77.12170194,airport,faa,no
7N4,MI,RAYMOND L KUSSMAUL JR MEML,CLINTON,LENAWEE,42.07775,-83.98602361,airport,faa,no
7N8,PA,BUTTER VALLEY GOLF PORT,BALLY,MONTGOMERY,40.39743888,-75.56318888,airport,faa,no
7NC,NC,DONALD'S AIR PARK INC,PLYMOUTH,WASHINGTON,35.73168944,-76.67125944,airport,faa,no
7P5,WI,PISO,SURING,OCONTO,45.06588055,-88.42704861,airport,faa,no
7Q7,SD,WHITE RIVER MUNI,WHITE RIVER,MELLETTE,43.56166416,-100.74180555,airport,faa,no
7R9,TX,BAILES,ANGLETON,BRAZORIA,29.16505555,-95.40108333,airport,faa,no
7S0,MT,RONAN,RONAN,LAKE,47.56716666,-114.10108333,airport,faa,no
7S1,SC,7 OAKS FLIGHT PARK,FAIRFAX,ALLENDALE,32.9986,-81.20834305,airport,faa,no
7S2,MT,WINNETT,WINNETT,BEAVERHEAD,46.97666666,-108.365,airport,faa,no
7S3,OR,STARK'S TWIN OAKS AIRPARK,HILLSBORO,WASHINGTON,45.42845027,-122.94215694,airport,faa,no
7S4,MT,WISDOM,WISDOM,BEAVERHEAD,45.59158972,-113.45922555,airport,faa,no
7S5,OR,INDEPENDENCE STATE,INDEPENDENCE,POLK,44.86715155,-123.19824502,airport,faa,no
7S6,MT,WHITE SULPHUR SPRINGS,WHITE SULPHUR SPRINGS,MEAGHER,46.49557861,-110.9119175,airport,faa,no
7S7,MT,VALIER,VALIER,PONDERA,48.30014861,-112.25114147,airport,faa,no
7S8,MT,ROSS INTL,SWEETGRASS,TOOLE,48.99855555,-111.97822222,airport,faa,no
7S9,OR,LENHARDT AIRPARK,HUBBARD,CLACKAMAS,45.18039833,-122.743425,airport,faa,no
7T0,TX,FREEDOM FLD,LINDSAY,COOKE,33.59361111,-97.21888888,airport,faa,no
7T7,TX,SKYWEST INC,MIDLAND,MIDLAND,31.85508333,-102.07394444,airport,faa,no
7U8,MT,RICHEY,RICHEY,DAWSON,47.62641666,-105.07958333,airport,faa,no
7V2,CO,NORTH FORK VALLEY,PAONIA,DELTA,38.83130555,-107.64586111,airport,faa,no
7V3,WI,BIG FOOT AIRFIELD,WALWORTH,WALWORTH,42.52716483,-88.65139211,airport,faa,no
7V5,CO,BRUSH MUNI,BRUSH,MORGAN,40.26436111,-103.57563888,airport,faa,no
7V7,NE,RED CLOUD MUNI,RED CLOUD,WEBSTER,40.08216666,-98.54136111,airport,faa,no
7V8,CO,JULESBURG MUNI,JULESBURG,SEDGWICK,40.97025833,-102.31527361,airport,faa,no
7V9,CO,CITY OF LAS ANIMAS - BENT COUNTY,LAS ANIMAS,BENT,38.05402777,-103.23847222,airport,faa,no
7W1,WA,PORT OF ILWACO,ILWACO,PACIFIC,46.3149125,-124.00383805,airport,faa,no
7W4,VA,LAKE ANNA,BUMPASS,LOUISA,37.96581944,-77.74590277,airport,faa,no
7W5,OH,HENRY COUNTY,NAPOLEON,HENRY,41.37426972,-84.06787916,airport,faa,no
7W6,NC,HYDE COUNTY,ENGELHARD,HYDE,35.56210972,-75.95615361,airport,faa,no
7Y2,MI,THOMPSONVILLE,THOMPSONVILLE,BENZIE,44.51779461,-85.97056783,airport,faa,no
7Y3,MN,BACKUS MUNI,BACKUS,CASS,46.827175,-94.50678611,airport,faa,no
7Y4,MN,BAGLEY MUNI,BAGLEY,CLEARWATER,47.52403125,-95.3637125,airport,faa,no
7Y9,MN,BIG FALLS MUNI,BIG FALLS,KOOCHICHING,48.2004753,-93.76238591,airport,faa,no
80A,AK,AMERICAN CREEK,AMERICAN CREEK,YUKON-KOYUKUK,65.10398194,-151.17723333,airport,faa,no
80C,NC,LONE HICKORY,YADKINVILLE,YADKIN,36.06051444,-80.6901,airport,faa,no
80D,MI,CLARE COUNTY,HARRISON,CLARE,44.05235116,-84.81317663,airport,faa,no
80F,OK,ANTLERS MUNI,ANTLERS,PUSHMATAHA,34.19356805,-95.64986361,airport,faa,no
80G,OH,TRI-CITY,WEST LAFAYETTE,COSHOCTON,40.24785972,-81.73606944,airport,faa,no
80S,MT,LAVINA,LAVINA,GOLDEN VALLEY,46.30727777,-108.95480555,airport,faa,no
